[
 {
   "PERMIT NUMBER": 1142666,
   "ACCOUNT NUMBER": 458934,
   "SITE NUMBER": 1,
   "LEGAL NAME": "TINTO & TAPAS, LLC",
   "DOING BUSINESS AS NAME": "TINTO & TAPAS",
   "ISSUED DATE": "2019-11-25T00:00:00.000",
   "EXPIRATION DATE": "2020-02-29T00:00:00.000",
   "PAYMENT DATE": "2019-10-29T00:00:00.000",
   "ADDRESS": "7958 W BELMONT AVE",
   "ADDRESS NUMBER START": 7958,
   "ADDRESS NUMBER": "7958",
   "STREET DIRECTION": "W",
   "STREET": "BELMONT",
   "STREET TYPE": "AVE",
   "CITY": "CHICAGO",
   "STATE": "",
   "ZIP CODE": 60634,
   "WARD": 38,
   "PRECINCT": 30,
   "WARD PRECINCT": "38-30",
   "POLICE DISTRICT": 16,
   "LATITUDE": 41.937859428,
   "LONGITUDE": -87.826255031,
   "LOCATION": "{'latitude': '41.937859427847215', 'human_address': '{\"address\": \"\", \"city\": \"\", \"state\": \"\", \"zip\": \"\"}', 'longitude': '-87.82625503087803'}",
   "Community Areas": 17,
   "Zip Codes": 22254,
   "Boundaries - ZIP Codes": 52,
   "Census Tracts": 457,
   "Wards": 19
 },
 {
   "PERMIT NUMBER": 1142290,
   "ACCOUNT NUMBER": 294900,
   "SITE NUMBER": 4,
   "LEGAL NAME": "PIE CAFE, LLC",
   "DOING BUSINESS AS NAME": "Pie cafe",
   "ISSUED DATE": "2019-10-15T00:00:00.000",
   "EXPIRATION DATE": "2020-02-29T00:00:00.000",
   "PAYMENT DATE": "2019-10-15T00:00:00.000",
   "ADDRESS": "5357 N ASHLAND AVE",
   "ADDRESS NUMBER START": 5357,
   "ADDRESS NUMBER": "5357",
   "STREET DIRECTION": "N",
   "STREET": "ASHLAND",
   "STREET TYPE": "AVE",
   "CITY": "CHICAGO",
   "STATE": "",
   "ZIP CODE": 60640,
   "WARD": 40,
   "PRECINCT": 26,
   "WARD PRECINCT": "40-26",
   "POLICE DISTRICT": 20,
   "LATITUDE": 41.979717097,
   "LONGITUDE": -87.669564918,
   "LOCATION": "{'latitude': '41.979717096739535', 'human_address': '{\"address\": \"\", \"city\": \"\", \"state\": \"\", \"zip\": \"\"}', 'longitude': '-87.66956491822631'}",
   "Community Areas": 76,
   "Zip Codes": 22616,
   "Boundaries - ZIP Codes": 15,
   "Census Tracts": 564,
   "Wards": 24
 },
 {
   "PERMIT NUMBER": 1142132,
   "ACCOUNT NUMBER": 459163,
   "SITE NUMBER": 1,
   "LEGAL NAME": "KALIFLOWER 333 NORTH MICHIGAN AVE LLC",
   "DOING BUSINESS AS NAME": "KALIFLOWER",
   "ISSUED DATE": "2019-09-20T00:00:00.000",
   "EXPIRATION DATE": "2020-02-29T00:00:00.000",
   "PAYMENT DATE": "2019-09-20T00:00:00.000",
   "ADDRESS": "333 N MICHIGAN AVE",
   "ADDRESS NUMBER START": 333,
   "ADDRESS NUMBER": "333",
   "STREET DIRECTION": "N",
   "STREET": "MICHIGAN",
   "STREET TYPE": "AVE",
   "CITY": "CHICAGO",
   "STATE": "",
   "ZIP CODE": 60601,
   "WARD": 42,
   "PRECINCT": 40,
   "WARD PRECINCT": "42-40",
   "POLICE DISTRICT": 1,
   "LATITUDE": 41.887542941,
   "LONGITUDE": -87.624407002,
   "LOCATION": "{'latitude': '41.88754294139151', 'human_address': '{\"address\": \"\", \"city\": \"\", \"state\": \"\", \"zip\": \"\"}', 'longitude': '-87.62440700245574'}",
   "Community Areas": 38,
   "Zip Codes": 14309,
   "Boundaries - ZIP Codes": 42,
   "Census Tracts": 580,
   "Wards": 36
 },
 {
   "PERMIT NUMBER": 1142101,
   "ACCOUNT NUMBER": 384478,
   "SITE NUMBER": 1,
   "LEGAL NAME": "1732 N MILWAUKEE RESTAURANT LLC",
   "DOING BUSINESS AS NAME": "SMALL CHEVAL",
   "ISSUED DATE": "2019-09-20T00:00:00.000",
   "EXPIRATION DATE": "2020-02-29T00:00:00.000",
   "PAYMENT DATE": "2019-09-20T00:00:00.000",
   "ADDRESS": "1732 N MILWAUKEE AVE",
   "ADDRESS NUMBER START": 1732,
   "ADDRESS NUMBER": "1732",
   "STREET DIRECTION": "N",
   "STREET": "MILWAUKEE",
   "STREET TYPE": "AVE",
   "CITY": "CHICAGO",
   "STATE": "",
   "ZIP CODE": 60647,
   "WARD": 32,
   "PRECINCT": 6,
   "WARD PRECINCT": "32-6",
   "POLICE DISTRICT": 14,
   "LATITUDE": 41.912730418,
   "LONGITUDE": -87.681327033,
   "LOCATION": "{'latitude': '41.91273041812944', 'human_address': '{\"address\": \"\", \"city\": \"\", \"state\": \"\", \"zip\": \"\"}', 'longitude': '-87.68132703318662'}",
   "Community Areas": 25,
   "Zip Codes": 22535,
   "Boundaries - ZIP Codes": 1,
   "Census Tracts": 298,
   "Wards": 40
 },
 {
   "PERMIT NUMBER": 1142100,
   "ACCOUNT NUMBER": 456144,
   "SITE NUMBER": 1,
   "LEGAL NAME": "THE WHALE CHICAGO, LLC",
   "DOING BUSINESS AS NAME": "THE WHALE CHICAGO",
   "ISSUED DATE": "2019-09-19T00:00:00.000",
   "EXPIRATION DATE": "2020-02-29T00:00:00.000",
   "PAYMENT DATE": "2019-09-19T00:00:00.000",
   "ADDRESS": "2427-2431 N MILWAUKEE AVE",
   "ADDRESS NUMBER START": 2427,
   "ADDRESS NUMBER": "2427-2431",
   "STREET DIRECTION": "N",
   "STREET": "MILWAUKEE",
   "STREET TYPE": "AVE",
   "CITY": "CHICAGO",
   "STATE": "",
   "ZIP CODE": 60647,
   "WARD": 1,
   "PRECINCT": 19,
   "WARD PRECINCT": "1-19",
   "POLICE DISTRICT": 14,
   "LATITUDE": 41.925388018,
   "LONGITUDE": -87.70116974,
   "LOCATION": "{'latitude': '41.92538801822599', 'human_address': '{\"address\": \"\", \"city\": \"\", \"state\": \"\", \"zip\": \"\"}', 'longitude': '-87.70116974040494'}",
   "Community Areas": 23,
   "Zip Codes": 22535,
   "Boundaries - ZIP Codes": 1,
   "Census Tracts": 548,
   "Wards": 41
 },
 {
   "PERMIT NUMBER": 1142099,
   "ACCOUNT NUMBER": 457410,
   "SITE NUMBER": 1,
   "LEGAL NAME": "MOOSCA, LLC",
   "DOING BUSINESS AS NAME": "FLORAFAUNA",
   "ISSUED DATE": "2019-09-23T00:00:00.000",
   "EXPIRATION DATE": "2020-02-29T00:00:00.000",
   "PAYMENT DATE": "2019-09-23T00:00:00.000",
   "ADDRESS": "11 W ILLINOIS ST",
   "ADDRESS NUMBER START": 11,
   "ADDRESS NUMBER": "11",
   "STREET DIRECTION": "W",
   "STREET": "ILLINOIS",
   "STREET TYPE": "ST",
   "CITY": "CHICAGO",
   "STATE": "",
   "ZIP CODE": 60654,
   "WARD": 42,
   "PRECINCT": 25,
   "WARD PRECINCT": "42-25",
   "POLICE DISTRICT": 18,
   "LATITUDE": 41.890746791,
   "LONGITUDE": -87.628510944,
   "LOCATION": "{'latitude': '41.8907467911109', 'human_address': '{\"address\": \"\", \"city\": \"\", \"state\": \"\", \"zip\": \"\"}', 'longitude': '-87.62851094403574'}",
   "Community Areas": 37,
   "Zip Codes": 4446,
   "Boundaries - ZIP Codes": 55,
   "Census Tracts": 669,
   "Wards": 36
 },
 {
   "PERMIT NUMBER": 1141644,
   "ACCOUNT NUMBER": 428117,
   "SITE NUMBER": 1,
   "LEGAL NAME": "CULTURE HOSPITALITY LLC",
   "DOING BUSINESS AS NAME": "LA LUNA",
   "ISSUED DATE": "2019-07-26T00:00:00.000",
   "EXPIRATION DATE": "2020-02-29T00:00:00.000",
   "PAYMENT DATE": "2019-07-26T00:00:00.000",
   "ADDRESS": "1726 S RACINE AVE",
   "ADDRESS NUMBER START": 1726,
   "ADDRESS NUMBER": "1726",
   "STREET DIRECTION": "S",
   "STREET": "RACINE",
   "STREET TYPE": "AVE",
   "CITY": "CHICAGO",
   "STATE": "",
   "ZIP CODE": 60608,
   "WARD": 25,
   "PRECINCT": 17,
   "WARD PRECINCT": "25-17",
   "POLICE DISTRICT": 12,
   "LATITUDE": 41.857995698,
   "LONGITUDE": -87.656577799,
   "LOCATION": "{'latitude': '41.8579956978484', 'human_address': '{\"address\": \"\", \"city\": \"\", \"state\": \"\", \"zip\": \"\"}', 'longitude': '-87.65657779871901'}",
   "Community Areas": 33,
   "Zip Codes": 14920,
   "Boundaries - ZIP Codes": 43,
   "Census Tracts": 365,
   "Wards": 26
 },
 {
   "PERMIT NUMBER": 1141643,
   "ACCOUNT NUMBER": 458283,
   "SITE NUMBER": 1,
   "LEGAL NAME": "DOGGONE'S LLC",
   "DOING BUSINESS AS NAME": "DOGGONE'S",
   "ISSUED DATE": "2019-08-15T00:00:00.000",
   "EXPIRATION DATE": "2020-02-29T00:00:00.000",
   "PAYMENT DATE": "2019-08-15T00:00:00.000",
   "ADDRESS": "3301 W ARMITAGE AVE",
   "ADDRESS NUMBER START": 3301,
   "ADDRESS NUMBER": "3301",
   "STREET DIRECTION": "W",
   "STREET": "ARMITAGE",
   "STREET TYPE": "AVE",
   "CITY": "CHICAGO",
   "STATE": "",
   "ZIP CODE": 60647,
   "WARD": 26,
   "PRECINCT": 7,
   "WARD PRECINCT": "26-7",
   "POLICE DISTRICT": 14,
   "LATITUDE": 41.91724978,
   "LONGITUDE": -87.710355706,
   "LOCATION": "{'latitude': '41.91724978007896', 'human_address': '{\"address\": \"\", \"city\": \"\", \"state\": \"\", \"zip\": \"\"}', 'longitude': '-87.71035570565451'}",
   "Community Areas": 23,
   "Zip Codes": 22535,
   "Boundaries - ZIP Codes": 1,
   "Census Tracts": 387,
   "Wards": 49
 },
 {
   "PERMIT NUMBER": 1141642,
   "ACCOUNT NUMBER": 281904,
   "SITE NUMBER": 2,
   "LEGAL NAME": "FANNIE MAY CONFECTIONS, INC.",
   "DOING BUSINESS AS NAME": "FANNIE MAY CONFECTIONS #152",
   "ISSUED DATE": "2019-08-19T00:00:00.000",
   "EXPIRATION DATE": "2020-02-29T00:00:00.000",
   "PAYMENT DATE": "2019-08-19T00:00:00.000",
   "ADDRESS": "343 N MICHIGAN AVE",
   "ADDRESS NUMBER START": 343,
   "ADDRESS NUMBER": "343",
   "STREET DIRECTION": "N",
   "STREET": "MICHIGAN",
   "STREET TYPE": "AVE",
   "CITY": "CHICAGO",
   "STATE": "",
   "ZIP CODE": 60601,
   "WARD": 42,
   "PRECINCT": 40,
   "WARD PRECINCT": "42-40",
   "POLICE DISTRICT": 1,
   "LATITUDE": 41.887750299,
   "LONGITUDE": -87.624410868,
   "LOCATION": "{'latitude': '41.88775029855391', 'human_address': '{\"address\": \"\", \"city\": \"\", \"state\": \"\", \"zip\": \"\"}', 'longitude': '-87.62441086782081'}",
   "Community Areas": 38,
   "Zip Codes": 14309,
   "Boundaries - ZIP Codes": 42,
   "Census Tracts": 580,
   "Wards": 36
 },
 {
   "PERMIT NUMBER": 1131611,
   "ACCOUNT NUMBER": 407761,
   "SITE NUMBER": 1,
   "LEGAL NAME": "GODDESS AND THE BAKER WACKER, LLC",
   "DOING BUSINESS AS NAME": "GODDESS AND THE BAKER",
   "ISSUED DATE": "2018-03-23T00:00:00.000",
   "EXPIRATION DATE": "2018-12-01T00:00:00.000",
   "PAYMENT DATE": "2018-03-14T00:00:00.000",
   "ADDRESS": "225 N LA SALLE ST",
   "ADDRESS NUMBER START": 225,
   "ADDRESS NUMBER": "225",
   "STREET DIRECTION": "N",
   "STREET": "LA SALLE",
   "STREET TYPE": "ST",
   "CITY": "CHICAGO",
   "STATE": "IL",
   "ZIP CODE": 60601,
   "WARD": 42,
   "PRECINCT": 9,
   "WARD PRECINCT": "42-9",
   "POLICE DISTRICT": 1,
   "LATITUDE": 41.886404721,
   "LONGITUDE": -87.632321714,
   "LOCATION": "{'latitude': '41.88640472146675', 'human_address': '{\"address\": \"\", \"city\": \"\", \"state\": \"\", \"zip\": \"\"}', 'longitude': '-87.63232171448688'}",
   "Community Areas": 38,
   "Zip Codes": 14309,
   "Boundaries - ZIP Codes": 42,
   "Census Tracts": 92,
   "Wards": 36
 },
 {
   "PERMIT NUMBER": 1131610,
   "ACCOUNT NUMBER": 65004,
   "SITE NUMBER": 48,
   "LEGAL NAME": "POTBELLY SANDWICH WORKS, LLC",
   "DOING BUSINESS AS NAME": "POTBELLY SANDWICH WORKS",
   "ISSUED DATE": "2018-04-10T00:00:00.000",
   "EXPIRATION DATE": "2018-12-01T00:00:00.000",
   "PAYMENT DATE": "2018-03-20T00:00:00.000",
   "ADDRESS": "5304 N CLARK ST",
   "ADDRESS NUMBER START": 5304,
   "ADDRESS NUMBER": "5304",
   "STREET DIRECTION": "N",
   "STREET": "CLARK",
   "STREET TYPE": "ST",
   "CITY": "CHICAGO",
   "STATE": "IL",
   "ZIP CODE": 60640,
   "WARD": 40,
   "PRECINCT": 43,
   "WARD PRECINCT": "40-43",
   "POLICE DISTRICT": 20,
   "LATITUDE": 41.978205263,
   "LONGITUDE": -87.66849069,
   "LOCATION": "{'latitude': '41.97820526310159', 'human_address': '{\"address\": \"\", \"city\": \"\", \"state\": \"\", \"zip\": \"\"}', 'longitude': '-87.66849069015261'}",
   "Community Areas": 76,
   "Zip Codes": 22616,
   "Boundaries - ZIP Codes": 15,
   "Census Tracts": 564,
   "Wards": 24
 },
 {
   "PERMIT NUMBER": 1131609,
   "ACCOUNT NUMBER": 65004,
   "SITE NUMBER": 29,
   "LEGAL NAME": "POTBELLY SANDWICH WORKS, LLC",
   "DOING BUSINESS AS NAME": "POTBELLY SANDWICH WORKS # 114",
   "ISSUED DATE": "2018-04-10T00:00:00.000",
   "EXPIRATION DATE": "2018-12-01T00:00:00.000",
   "PAYMENT DATE": "2018-03-20T00:00:00.000",
   "ADDRESS": "4709 N LINCOLN AVE",
   "ADDRESS NUMBER START": 4709,
   "ADDRESS NUMBER": "4709",
   "STREET DIRECTION": "N",
   "STREET": "LINCOLN",
   "STREET TYPE": "AVE",
   "CITY": "CHICAGO",
   "STATE": "IL",
   "ZIP CODE": 60625,
   "WARD": 47,
   "PRECINCT": 33,
   "WARD PRECINCT": "47-33",
   "POLICE DISTRICT": 19,
   "LATITUDE": 41.966852686,
   "LONGITUDE": -87.687309102,
   "LOCATION": "{'latitude': '41.96685268567701', 'human_address': '{\"address\": \"\", \"city\": \"\", \"state\": \"\", \"zip\": \"\"}', 'longitude': '-87.68730910211042'}",
   "Community Areas": 6,
   "Zip Codes": 21849,
   "Boundaries - ZIP Codes": 20,
   "Census Tracts": 665,
   "Wards": 18
 },
 {
   "PERMIT NUMBER": 1131608,
   "ACCOUNT NUMBER": 65004,
   "SITE NUMBER": 23,
   "LEGAL NAME": "POTBELLY SANDWICH WORKS, LLC",
   "DOING BUSINESS AS NAME": "POTBELLY SANDWICH WORKS LLC",
   "ISSUED DATE": "2018-04-10T00:00:00.000",
   "EXPIRATION DATE": "2018-12-01T00:00:00.000",
   "PAYMENT DATE": "2018-03-20T00:00:00.000",
   "ADDRESS": "542 S DEARBORN ST",
   "ADDRESS NUMBER START": 542,
   "ADDRESS NUMBER": "542",
   "STREET DIRECTION": "S",
   "STREET": "DEARBORN",
   "STREET TYPE": "ST",
   "CITY": "CHICAGO",
   "STATE": "IL",
   "ZIP CODE": 60605,
   "WARD": 4,
   "PRECINCT": 49,
   "WARD PRECINCT": "4-49",
   "POLICE DISTRICT": 1,
   "LATITUDE": 41.874861998,
   "LONGITUDE": -87.629363045,
   "LOCATION": "{'latitude': '41.87486199770747', 'human_address': '{\"address\": \"\", \"city\": \"\", \"state\": \"\", \"zip\": \"\"}', 'longitude': '-87.62936304459032'}",
   "Community Areas": 38,
   "Zip Codes": 14913,
   "Boundaries - ZIP Codes": 35,
   "Census Tracts": 92,
   "Wards": 10
 },
 {
   "PERMIT NUMBER": 1131606,
   "ACCOUNT NUMBER": 65004,
   "SITE NUMBER": 65,
   "LEGAL NAME": "POTBELLY SANDWICH WORKS, LLC",
   "DOING BUSINESS AS NAME": "POTBELLY SANDWICH SHOP",
   "ISSUED DATE": "2018-04-10T00:00:00.000",
   "EXPIRATION DATE": "2018-12-01T00:00:00.000",
   "PAYMENT DATE": "2018-03-20T00:00:00.000",
   "ADDRESS": "4185 W IRVING PARK RD",
   "ADDRESS NUMBER START": 4185,
   "ADDRESS NUMBER": "4185",
   "STREET DIRECTION": "W",
   "STREET": "IRVING PARK",
   "STREET TYPE": "RD",
   "CITY": "CHICAGO",
   "STATE": "IL",
   "ZIP CODE": 60641,
   "WARD": 45,
   "PRECINCT": 10,
   "WARD PRECINCT": "45-10",
   "POLICE DISTRICT": 17,
   "LATITUDE": 41.95348915,
   "LONGITUDE": -87.732320205,
   "LOCATION": "{'latitude': '41.953489149800056', 'human_address': '{\"address\": \"\", \"city\": \"\", \"state\": \"\", \"zip\": \"\"}', 'longitude': '-87.73232020498648'}",
   "Community Areas": 16,
   "Zip Codes": 22618,
   "Boundaries - ZIP Codes": 21,
   "Census Tracts": 295,
   "Wards": 50
 },
 {
   "PERMIT NUMBER": 1131605,
   "ACCOUNT NUMBER": 65004,
   "SITE NUMBER": 62,
   "LEGAL NAME": "POTBELLY SANDWICH WORKS, LLC",
   "DOING BUSINESS AS NAME": "POTBELLY SANDWICH SHOP",
   "ISSUED DATE": "2018-04-10T00:00:00.000",
   "EXPIRATION DATE": "2018-12-01T00:00:00.000",
   "PAYMENT DATE": "2018-03-20T00:00:00.000",
   "ADDRESS": "1018 S CANAL ST",
   "ADDRESS NUMBER START": 1018,
   "ADDRESS NUMBER": "1018",
   "STREET DIRECTION": "S",
   "STREET": "CANAL",
   "STREET TYPE": "ST",
   "CITY": "CHICAGO",
   "STATE": "IL",
   "ZIP CODE": 60607,
   "WARD": 25,
   "PRECINCT": 28,
   "WARD PRECINCT": "25-28",
   "POLICE DISTRICT": 1,
   "LATITUDE": 41.869137223,
   "LONGITUDE": -87.639401747,
   "LOCATION": "{'latitude': '41.869137222550215', 'human_address': '{\"address\": \"\", \"city\": \"\", \"state\": \"\", \"zip\": \"\"}', 'longitude': '-87.63940174679801'}",
   "Community Areas": 29,
   "Zip Codes": 14917,
   "Boundaries - ZIP Codes": 44,
   "Census Tracts": 97,
   "Wards": 26
 },
 {
   "PERMIT NUMBER": 1131602,
   "ACCOUNT NUMBER": 65004,
   "SITE NUMBER": 13,
   "LEGAL NAME": "POTBELLY SANDWICH WORKS, LLC",
   "DOING BUSINESS AS NAME": "POTBELLY SANDWICH WORKS LLC",
   "ISSUED DATE": "2018-04-10T00:00:00.000",
   "EXPIRATION DATE": "2018-12-01T00:00:00.000",
   "PAYMENT DATE": "2018-03-20T00:00:00.000",
   "ADDRESS": "175 W JACKSON BLVD",
   "ADDRESS NUMBER START": 175,
   "ADDRESS NUMBER": "175",
   "STREET DIRECTION": "W",
   "STREET": "JACKSON",
   "STREET TYPE": "BLVD",
   "CITY": "CHICAGO",
   "STATE": "IL",
   "ZIP CODE": 60604,
   "WARD": 42,
   "PRECINCT": 49,
   "WARD PRECINCT": "42-49",
   "POLICE DISTRICT": 1,
   "LATITUDE": 41.878014487,
   "LONGITUDE": -87.63318903,
   "LOCATION": "{'latitude': '41.878014487249544', 'human_address': '{\"address\": \"\", \"city\": \"\", \"state\": \"\", \"zip\": \"\"}', 'longitude': '-87.63318903001444'}",
   "Community Areas": 38,
   "Zip Codes": 14912,
   "Boundaries - ZIP Codes": 29,
   "Census Tracts": 92,
   "Wards": 36
 },
 {
   "PERMIT NUMBER": 1131601,
   "ACCOUNT NUMBER": 65004,
   "SITE NUMBER": 31,
   "LEGAL NAME": "POTBELLY SANDWICH WORKS, LLC",
   "DOING BUSINESS AS NAME": "POTBELLY SANDWICH WORKS",
   "ISSUED DATE": "2018-04-10T00:00:00.000",
   "EXPIRATION DATE": "2018-12-01T00:00:00.000",
   "PAYMENT DATE": "2018-03-20T00:00:00.000",
   "ADDRESS": "545 W MADISON ST",
   "ADDRESS NUMBER START": 545,
   "ADDRESS NUMBER": "545",
   "STREET DIRECTION": "W",
   "STREET": "MADISON",
   "STREET TYPE": "ST",
   "CITY": "CHICAGO",
   "STATE": "IL",
   "ZIP CODE": 60661,
   "WARD": 42,
   "PRECINCT": 69,
   "WARD PRECINCT": "42-69",
   "POLICE DISTRICT": 1,
   "LATITUDE": 41.881742105,
   "LONGITUDE": -87.641419389,
   "LOCATION": "{'latitude': '41.88174210456197', 'human_address': '{\"address\": \"\", \"city\": \"\", \"state\": \"\", \"zip\": \"\"}', 'longitude': '-87.64141938928786'}",
   "Community Areas": 29,
   "Zip Codes": 4452,
   "Boundaries - ZIP Codes": 45,
   "Census Tracts": 786,
   "Wards": 36
 },
 {
   "PERMIT NUMBER": 1131600,
   "ACCOUNT NUMBER": 65004,
   "SITE NUMBER": 39,
   "LEGAL NAME": "POTBELLY SANDWICH WORKS, LLC",
   "DOING BUSINESS AS NAME": "POTBELLY SANDWICH WORKS",
   "ISSUED DATE": "2018-04-10T00:00:00.000",
   "EXPIRATION DATE": "2018-12-01T00:00:00.000",
   "PAYMENT DATE": "2018-03-20T00:00:00.000",
   "ADDRESS": "547 W JACKSON BLVD",
   "ADDRESS NUMBER START": 547,
   "ADDRESS NUMBER": "547",
   "STREET DIRECTION": "W",
   "STREET": "JACKSON",
   "STREET TYPE": "BLVD",
   "CITY": "CHICAGO",
   "STATE": "IL",
   "ZIP CODE": 60661,
   "WARD": 42,
   "PRECINCT": 12,
   "WARD PRECINCT": "42-12",
   "POLICE DISTRICT": 1,
   "LATITUDE": 41.877914155,
   "LONGITUDE": -87.641405397,
   "LOCATION": "{'latitude': '41.8779141549793', 'human_address': '{\"address\": \"\", \"city\": \"\", \"state\": \"\", \"zip\": \"\"}', 'longitude': '-87.64140539747254'}",
   "Community Areas": 29,
   "Zip Codes": 4452,
   "Boundaries - ZIP Codes": 45,
   "Census Tracts": 786,
   "Wards": 36
 },
 {
   "PERMIT NUMBER": 1131599,
   "ACCOUNT NUMBER": 65004,
   "SITE NUMBER": 21,
   "LEGAL NAME": "POTBELLY SANDWICH WORKS, LLC",
   "DOING BUSINESS AS NAME": "POTBELLY SANDWICH WORKS LLC",
   "ISSUED DATE": "2018-04-10T00:00:00.000",
   "EXPIRATION DATE": "2018-12-01T00:00:00.000",
   "PAYMENT DATE": "2018-03-20T00:00:00.000",
   "ADDRESS": "277 E ONTARIO ST",
   "ADDRESS NUMBER START": 277,
   "ADDRESS NUMBER": "277",
   "STREET DIRECTION": "E",
   "STREET": "ONTARIO",
   "STREET TYPE": "ST",
   "CITY": "CHICAGO",
   "STATE": "IL",
   "ZIP CODE": 60611,
   "WARD": 42,
   "PRECINCT": 41,
   "WARD PRECINCT": "42-41",
   "POLICE DISTRICT": 18,
   "LATITUDE": 41.893286702,
   "LONGITUDE": -87.620736038,
   "LOCATION": "{'latitude': '41.89328670170699', 'human_address': '{\"address\": \"\", \"city\": \"\", \"state\": \"\", \"zip\": \"\"}', 'longitude': '-87.62073603767028'}",
   "Community Areas": 37,
   "Zip Codes": 21182,
   "Boundaries - ZIP Codes": 6,
   "Census Tracts": 159,
   "Wards": 36
 },
 {
   "PERMIT NUMBER": 1131598,
   "ACCOUNT NUMBER": 65004,
   "SITE NUMBER": 56,
   "LEGAL NAME": "POTBELLY SANDWICH WORKS, LLC",
   "DOING BUSINESS AS NAME": "POTBELLY SANDWICH WORKS",
   "ISSUED DATE": "2018-04-10T00:00:00.000",
   "EXPIRATION DATE": "2018-12-01T00:00:00.000",
   "PAYMENT DATE": "2018-03-20T00:00:00.000",
   "ADDRESS": "200 S MICHIGAN AVE",
   "ADDRESS NUMBER START": 200,
   "ADDRESS NUMBER": "200",
   "STREET DIRECTION": "S",
   "STREET": "MICHIGAN",
   "STREET TYPE": "AVE",
   "CITY": "CHICAGO",
   "STATE": "IL",
   "ZIP CODE": 60604,
   "WARD": 42,
   "PRECINCT": 9,
   "WARD PRECINCT": "42-9",
   "POLICE DISTRICT": 1,
   "LATITUDE": 41.879489329,
   "LONGITUDE": -87.624498125,
   "LOCATION": "{'latitude': '41.87948932869769', 'human_address': '{\"address\": \"\", \"city\": \"\", \"state\": \"\", \"zip\": \"\"}', 'longitude': '-87.6244981249339'}",
   "Community Areas": 38,
   "Zip Codes": 14912,
   "Boundaries - ZIP Codes": 29,
   "Census Tracts": 367,
   "Wards": 36
 },
 {
   "PERMIT NUMBER": 1131597,
   "ACCOUNT NUMBER": 65004,
   "SITE NUMBER": 54,
   "LEGAL NAME": "POTBELLY SANDWICH WORKS, LLC",
   "DOING BUSINESS AS NAME": "POTBELLY SANDWICH WORKS",
   "ISSUED DATE": "2018-04-10T00:00:00.000",
   "EXPIRATION DATE": "2018-12-01T00:00:00.000",
   "PAYMENT DATE": "2018-03-20T00:00:00.000",
   "ADDRESS": "57 E CHICAGO AVE",
   "ADDRESS NUMBER START": 57,
   "ADDRESS NUMBER": "57",
   "STREET DIRECTION": "E",
   "STREET": "CHICAGO",
   "STREET TYPE": "AVE",
   "CITY": "CHICAGO",
   "STATE": "IL",
   "ZIP CODE": 60611,
   "WARD": 42,
   "PRECINCT": 19,
   "WARD PRECINCT": "42-19",
   "POLICE DISTRICT": 18,
   "LATITUDE": 41.896599125,
   "LONGITUDE": -87.625990339,
   "LOCATION": "{'latitude': '41.896599125135566', 'human_address': '{\"address\": \"\", \"city\": \"\", \"state\": \"\", \"zip\": \"\"}', 'longitude': '-87.62599033912518'}",
   "Community Areas": 37,
   "Zip Codes": 21182,
   "Boundaries - ZIP Codes": 6,
   "Census Tracts": 626,
   "Wards": 36
 },
 {
   "PERMIT NUMBER": 1131596,
   "ACCOUNT NUMBER": 65004,
   "SITE NUMBER": 1,
   "LEGAL NAME": "POTBELLY SANDWICH WORKS, LLC",
   "DOING BUSINESS AS NAME": "POTBELLY SANDWICH WORKS LLC",
   "ISSUED DATE": "2018-04-10T00:00:00.000",
   "EXPIRATION DATE": "2018-12-01T00:00:00.000",
   "PAYMENT DATE": "2018-03-20T00:00:00.000",
   "ADDRESS": "190 N STATE ST",
   "ADDRESS NUMBER START": 190,
   "ADDRESS NUMBER": "190",
   "STREET DIRECTION": "N",
   "STREET": "STATE",
   "STREET TYPE": "ST",
   "CITY": "CHICAGO",
   "STATE": "IL",
   "ZIP CODE": 60601,
   "WARD": 42,
   "PRECINCT": 9,
   "WARD PRECINCT": "42-9",
   "POLICE DISTRICT": 1,
   "LATITUDE": 41.88555517,
   "LONGITUDE": -87.628082725,
   "LOCATION": "{'latitude': '41.88555516950279', 'human_address': '{\"address\": \"\", \"city\": \"\", \"state\": \"\", \"zip\": \"\"}', 'longitude': '-87.62808272516106'}",
   "Community Areas": 38,
   "Zip Codes": 14309,
   "Boundaries - ZIP Codes": 42,
   "Census Tracts": 92,
   "Wards": 36
 },
 {
   "PERMIT NUMBER": 1131595,
   "ACCOUNT NUMBER": 65004,
   "SITE NUMBER": 28,
   "LEGAL NAME": "POTBELLY SANDWICH WORKS, LLC",
   "DOING BUSINESS AS NAME": "POTBELLY SANDWICH WORKS # 100",
   "ISSUED DATE": "2018-04-10T00:00:00.000",
   "EXPIRATION DATE": "2018-12-01T00:00:00.000",
   "PAYMENT DATE": "2018-03-20T00:00:00.000",
   "ADDRESS": "209 S LA SALLE ST",
   "ADDRESS NUMBER START": 209,
   "ADDRESS NUMBER": "209",
   "STREET DIRECTION": "S",
   "STREET": "LA SALLE",
   "STREET TYPE": "ST",
   "CITY": "CHICAGO",
   "STATE": "IL",
   "ZIP CODE": 60604,
   "WARD": 42,
   "PRECINCT": 9,
   "WARD PRECINCT": "42-9",
   "POLICE DISTRICT": 1,
   "LATITUDE": 41.87911455,
   "LONGITUDE": -87.63213674,
   "LOCATION": "{'latitude': '41.87911455044448', 'human_address': '{\"address\": \"\", \"city\": \"\", \"state\": \"\", \"zip\": \"\"}', 'longitude': '-87.63213673978143'}",
   "Community Areas": 38,
   "Zip Codes": 14912,
   "Boundaries - ZIP Codes": 29,
   "Census Tracts": 92,
   "Wards": 36
 },
 {
   "PERMIT NUMBER": 1131594,
   "ACCOUNT NUMBER": 65004,
   "SITE NUMBER": 12,
   "LEGAL NAME": "POTBELLY SANDWICH WORKS, LLC",
   "DOING BUSINESS AS NAME": "POTBELLY SANDWICH WORKS LLC",
   "ISSUED DATE": "2018-04-10T00:00:00.000",
   "EXPIRATION DATE": "2018-12-01T00:00:00.000",
   "PAYMENT DATE": "2018-03-20T00:00:00.000",
   "ADDRESS": "508 N CLARK ST",
   "ADDRESS NUMBER START": 508,
   "ADDRESS NUMBER": "508",
   "STREET DIRECTION": "N",
   "STREET": "CLARK",
   "STREET TYPE": "ST",
   "CITY": "CHICAGO",
   "STATE": "IL",
   "ZIP CODE": 60610,
   "WARD": 42,
   "PRECINCT": 46,
   "WARD PRECINCT": "42-46",
   "POLICE DISTRICT": 18,
   "LATITUDE": 41.891150496,
   "LONGITUDE": -87.631260284,
   "LOCATION": "{'latitude': '41.891150496266704', 'human_address': '{\"address\": \"\", \"city\": \"\", \"state\": \"\", \"zip\": \"\"}', 'longitude': '-87.63126028432397'}",
   "Community Areas": 37,
   "Zip Codes": 4446,
   "Boundaries - ZIP Codes": 55,
   "Census Tracts": 670,
   "Wards": 36
 },
 {
   "PERMIT NUMBER": 1131593,
   "ACCOUNT NUMBER": 65004,
   "SITE NUMBER": 11,
   "LEGAL NAME": "POTBELLY SANDWICH WORKS, LLC",
   "DOING BUSINESS AS NAME": "POTBELLY SANDWICH WORKS LLC",
   "ISSUED DATE": "2018-04-10T00:00:00.000",
   "EXPIRATION DATE": "2018-12-01T00:00:00.000",
   "PAYMENT DATE": "2018-03-20T00:00:00.000",
   "ADDRESS": "1 N LA SALLE ST",
   "ADDRESS NUMBER START": 1,
   "ADDRESS NUMBER": "1",
   "STREET DIRECTION": "N",
   "STREET": "LA SALLE",
   "STREET TYPE": "ST",
   "CITY": "CHICAGO",
   "STATE": "IL",
   "ZIP CODE": 60602,
   "WARD": 42,
   "PRECINCT": 9,
   "WARD PRECINCT": "42-9",
   "POLICE DISTRICT": 1,
   "LATITUDE": 41.881990074,
   "LONGITUDE": -87.632212876,
   "LOCATION": "{'latitude': '41.88199007378305', 'human_address': '{\"address\": \"\", \"city\": \"\", \"state\": \"\", \"zip\": \"\"}', 'longitude': '-87.63221287591374'}",
   "Community Areas": 38,
   "Zip Codes": 14310,
   "Boundaries - ZIP Codes": 41,
   "Census Tracts": 92,
   "Wards": 36
 },
 {
   "PERMIT NUMBER": 1131592,
   "ACCOUNT NUMBER": 351043,
   "SITE NUMBER": 1,
   "LEGAL NAME": "1160 DEARBORN ENTERTAINMENT LLC",
   "DOING BUSINESS AS NAME": "CHICAGO Q",
   "ISSUED DATE": "2018-04-10T00:00:00.000",
   "EXPIRATION DATE": "2018-12-01T00:00:00.000",
   "PAYMENT DATE": "2018-03-29T00:00:00.000",
   "ADDRESS": "1160 N DEARBORN ST",
   "ADDRESS NUMBER START": 1160,
   "ADDRESS NUMBER": "1160",
   "STREET DIRECTION": "N",
   "STREET": "DEARBORN",
   "STREET TYPE": "ST",
   "CITY": "CHICAGO",
   "STATE": "IL",
   "ZIP CODE": 60610,
   "WARD": 2,
   "PRECINCT": 36,
   "WARD PRECINCT": "2-36",
   "POLICE DISTRICT": 18,
   "LATITUDE": 41.903674782,
   "LONGITUDE": -87.630125824,
   "LOCATION": "{'latitude': '41.90367478181266', 'human_address': '{\"address\": \"\", \"city\": \"\", \"state\": \"\", \"zip\": \"\"}', 'longitude': '-87.63012582397081'}",
   "Community Areas": 37,
   "Zip Codes": 14926,
   "Boundaries - ZIP Codes": 54,
   "Census Tracts": 310,
   "Wards": 11
 },
 {
   "PERMIT NUMBER": 1131590,
   "ACCOUNT NUMBER": 388050,
   "SITE NUMBER": 1,
   "LEGAL NAME": "BAR SIENA, LLC",
   "DOING BUSINESS AS NAME": "BAR SIENA",
   "ISSUED DATE": "2018-04-19T00:00:00.000",
   "EXPIRATION DATE": "2018-12-01T00:00:00.000",
   "PAYMENT DATE": "2018-04-04T00:00:00.000",
   "ADDRESS": "832 W RANDOLPH ST",
   "ADDRESS NUMBER START": 832,
   "ADDRESS NUMBER": "832",
   "STREET DIRECTION": "W",
   "STREET": "RANDOLPH",
   "STREET TYPE": "ST",
   "CITY": "CHICAGO",
   "STATE": "IL",
   "ZIP CODE": 60607,
   "WARD": 27,
   "PRECINCT": 1,
   "WARD PRECINCT": "27-1",
   "POLICE DISTRICT": 12,
   "LATITUDE": 41.884496686,
   "LONGITUDE": -87.648665508,
   "LOCATION": "{'latitude': '41.884496686293886', 'human_address': '{\"address\": \"\", \"city\": \"\", \"state\": \"\", \"zip\": \"\"}', 'longitude': '-87.64866550824529'}",
   "Community Areas": 29,
   "Zip Codes": 14917,
   "Boundaries - ZIP Codes": 44,
   "Census Tracts": 63,
   "Wards": 46
 },
 {
   "PERMIT NUMBER": 1131589,
   "ACCOUNT NUMBER": 418621,
   "SITE NUMBER": 2,
   "LEGAL NAME": "WOW BAO LLC",
   "DOING BUSINESS AS NAME": "WOW BAO",
   "ISSUED DATE": "2018-03-08T00:00:00.000",
   "EXPIRATION DATE": "2018-12-01T00:00:00.000",
   "PAYMENT DATE": "2018-03-07T00:00:00.000",
   "ADDRESS": "175 W JACKSON BLVD",
   "ADDRESS NUMBER START": 175,
   "ADDRESS NUMBER": "175",
   "STREET DIRECTION": "W",
   "STREET": "JACKSON",
   "STREET TYPE": "BLVD",
   "CITY": "CHICAGO",
   "STATE": "IL",
   "ZIP CODE": 60604,
   "WARD": 42,
   "PRECINCT": 49,
   "WARD PRECINCT": "42-49",
   "POLICE DISTRICT": 1,
   "LATITUDE": 41.878014487,
   "LONGITUDE": -87.63318903,
   "LOCATION": "{'latitude': '41.878014487249544', 'human_address': '{\"address\": \"\", \"city\": \"\", \"state\": \"\", \"zip\": \"\"}', 'longitude': '-87.63318903001444'}",
   "Community Areas": 38,
   "Zip Codes": 14912,
   "Boundaries - ZIP Codes": 29,
   "Census Tracts": 92,
   "Wards": 36
 },
 {
   "PERMIT NUMBER": 1131564,
   "ACCOUNT NUMBER": 347093,
   "SITE NUMBER": 1,
   "LEGAL NAME": "LAM AND THE GOAT, LLC",
   "DOING BUSINESS AS NAME": "GIRL & THE GOAT",
   "ISSUED DATE": "2018-03-09T00:00:00.000",
   "EXPIRATION DATE": "2018-12-01T00:00:00.000",
   "PAYMENT DATE": "2018-03-09T00:00:00.000",
   "ADDRESS": "809-813 W RANDOLPH ST",
   "ADDRESS NUMBER START": 809,
   "ADDRESS NUMBER": "809-813",
   "STREET DIRECTION": "W",
   "STREET": "RANDOLPH",
   "STREET TYPE": "ST",
   "CITY": "CHICAGO",
   "STATE": "IL",
   "ZIP CODE": 60607,
   "WARD": 27,
   "PRECINCT": 1,
   "WARD PRECINCT": "27-1",
   "POLICE DISTRICT": 12,
   "LATITUDE": 41.88429093,
   "LONGITUDE": -87.647841773,
   "LOCATION": "{'latitude': '41.88429093010678', 'human_address': '{\"address\": \"\", \"city\": \"\", \"state\": \"\", \"zip\": \"\"}', 'longitude': '-87.64784177325362'}",
   "Community Areas": 29,
   "Zip Codes": 14917,
   "Boundaries - ZIP Codes": 44,
   "Census Tracts": 63,
   "Wards": 46
 },
 {
   "PERMIT NUMBER": 1131563,
   "ACCOUNT NUMBER": 398532,
   "SITE NUMBER": 1,
   "LEGAL NAME": "CHINESE GOAT, LLC",
   "DOING BUSINESS AS NAME": "DUCK DUCK GOAT",
   "ISSUED DATE": "2018-03-09T00:00:00.000",
   "EXPIRATION DATE": "2018-12-01T00:00:00.000",
   "PAYMENT DATE": "2018-03-09T00:00:00.000",
   "ADDRESS": "851-857 W FULTON MARKET",
   "ADDRESS NUMBER START": 851,
   "ADDRESS NUMBER": "851-857",
   "STREET DIRECTION": "W",
   "STREET": "FULTON MARKET",
   "STREET TYPE": "",
   "CITY": "CHICAGO",
   "STATE": "IL",
   "ZIP CODE": 60607,
   "WARD": 27,
   "PRECINCT": 1,
   "WARD PRECINCT": "27-1",
   "POLICE DISTRICT": 12,
   "LATITUDE": 41.886661523,
   "LONGITUDE": -87.649517727,
   "LOCATION": "{'latitude': '41.88666152304835', 'human_address': '{\"address\": \"\", \"city\": \"\", \"state\": \"\", \"zip\": \"\"}', 'longitude': '-87.6495177271827'}",
   "Community Areas": 29,
   "Zip Codes": 14917,
   "Boundaries - ZIP Codes": 44,
   "Census Tracts": 63,
   "Wards": 46
 },
 {
   "PERMIT NUMBER": 1131562,
   "ACCOUNT NUMBER": 368459,
   "SITE NUMBER": 1,
   "LEGAL NAME": "LITTLE GOAT, LLC",
   "DOING BUSINESS AS NAME": "LITTLE GOAT DINER",
   "ISSUED DATE": "2018-03-09T00:00:00.000",
   "EXPIRATION DATE": "2018-12-01T00:00:00.000",
   "PAYMENT DATE": "2018-03-09T00:00:00.000",
   "ADDRESS": "818-822 W RANDOLPH ST",
   "ADDRESS NUMBER START": 818,
   "ADDRESS NUMBER": "818-822",
   "STREET DIRECTION": "W",
   "STREET": "RANDOLPH",
   "STREET TYPE": "ST",
   "CITY": "CHICAGO",
   "STATE": "IL",
   "ZIP CODE": 60607,
   "WARD": 27,
   "PRECINCT": 1,
   "WARD PRECINCT": "27-1",
   "POLICE DISTRICT": 12,
   "LATITUDE": 41.88450331,
   "LONGITUDE": -87.648285837,
   "LOCATION": "{'latitude': '41.88450331042253', 'human_address': '{\"address\": \"\", \"city\": \"\", \"state\": \"\", \"zip\": \"\"}', 'longitude': '-87.6482858374806'}",
   "Community Areas": 29,
   "Zip Codes": 14917,
   "Boundaries - ZIP Codes": 44,
   "Census Tracts": 63,
   "Wards": 46
 },
 {
   "PERMIT NUMBER": 1131560,
   "ACCOUNT NUMBER": 267024,
   "SITE NUMBER": 1,
   "LEGAL NAME": "MUEN",
   "DOING BUSINESS AS NAME": "COZY NOODLES & RICE",
   "ISSUED DATE": "2018-03-14T00:00:00.000",
   "EXPIRATION DATE": "2018-12-01T00:00:00.000",
   "PAYMENT DATE": "2018-03-14T00:00:00.000",
   "ADDRESS": "3456 N SHEFFIELD AVE",
   "ADDRESS NUMBER START": 3456,
   "ADDRESS NUMBER": "3456",
   "STREET DIRECTION": "N",
   "STREET": "SHEFFIELD",
   "STREET TYPE": "AVE",
   "CITY": "CHICAGO",
   "STATE": "IL",
   "ZIP CODE": 60657,
   "WARD": 44,
   "PRECINCT": 31,
   "WARD PRECINCT": "44-31",
   "POLICE DISTRICT": 19,
   "LATITUDE": 41.945108104,
   "LONGITUDE": -87.654411816,
   "LOCATION": "{'latitude': '41.94510810433101', 'human_address': '{\"address\": \"\", \"city\": \"\", \"state\": \"\", \"zip\": \"\"}', 'longitude': '-87.65441181641037'}",
   "Community Areas": 57,
   "Zip Codes": 4449,
   "Boundaries - ZIP Codes": 22,
   "Census Tracts": 211,
   "Wards": 25
 },
 {
   "PERMIT NUMBER": 1131558,
   "ACCOUNT NUMBER": 397287,
   "SITE NUMBER": 1,
   "LEGAL NAME": "4500 NORTH LINCOLN, LLC",
   "DOING BUSINESS AS NAME": "GIDEON WELLES",
   "ISSUED DATE": "2018-03-22T00:00:00.000",
   "EXPIRATION DATE": "2018-12-01T00:00:00.000",
   "PAYMENT DATE": "2018-03-22T00:00:00.000",
   "ADDRESS": "4500 N LINCOLN AVE",
   "ADDRESS NUMBER START": 4500,
   "ADDRESS NUMBER": "4500",
   "STREET DIRECTION": "N",
   "STREET": "LINCOLN",
   "STREET TYPE": "AVE",
   "CITY": "CHICAGO",
   "STATE": "IL",
   "ZIP CODE": 60625,
   "WARD": 47,
   "PRECINCT": 42,
   "WARD PRECINCT": "47-42",
   "POLICE DISTRICT": 19,
   "LATITUDE": 41.963228402,
   "LONGITUDE": -87.685190443,
   "LOCATION": "{'latitude': '41.96322840151295', 'human_address': '{\"address\": \"\", \"city\": \"\", \"state\": \"\", \"zip\": \"\"}', 'longitude': '-87.6851904429567'}",
   "Community Areas": 6,
   "Zip Codes": 21849,
   "Boundaries - ZIP Codes": 20,
   "Census Tracts": 667,
   "Wards": 18
 },
 {
   "PERMIT NUMBER": 1131557,
   "ACCOUNT NUMBER": 394947,
   "SITE NUMBER": 1,
   "LEGAL NAME": "4 STAR 160 LLC",
   "DOING BUSINESS AS NAME": "THE WINDSOR",
   "ISSUED DATE": "2018-03-06T00:00:00.000",
   "EXPIRATION DATE": "2018-12-01T00:00:00.000",
   "PAYMENT DATE": "2018-03-06T00:00:00.000",
   "ADDRESS": "160 E HURON ST",
   "ADDRESS NUMBER START": 160,
   "ADDRESS NUMBER": "160",
   "STREET DIRECTION": "E",
   "STREET": "HURON",
   "STREET TYPE": "ST",
   "CITY": "CHICAGO",
   "STATE": "IL",
   "ZIP CODE": 60611,
   "WARD": 42,
   "PRECINCT": 38,
   "WARD PRECINCT": "42-38",
   "POLICE DISTRICT": 18,
   "LATITUDE": 41.895067022,
   "LONGITUDE": -87.623027214,
   "LOCATION": "{'latitude': '41.89506702242011', 'human_address': '{\"address\": \"\", \"city\": \"\", \"state\": \"\", \"zip\": \"\"}', 'longitude': '-87.6230272144113'}",
   "Community Areas": 37,
   "Zip Codes": 21182,
   "Boundaries - ZIP Codes": 6,
   "Census Tracts": 158,
   "Wards": 36
 },
 {
   "PERMIT NUMBER": 1131556,
   "ACCOUNT NUMBER": 395004,
   "SITE NUMBER": 1,
   "LEGAL NAME": "4 STAR 20 NORTH LLC",
   "DOING BUSINESS AS NAME": "REMINGTON'S",
   "ISSUED DATE": "2018-03-06T00:00:00.000",
   "EXPIRATION DATE": "2018-12-01T00:00:00.000",
   "PAYMENT DATE": "2018-03-06T00:00:00.000",
   "ADDRESS": "20 N MICHIGAN AVE",
   "ADDRESS NUMBER START": 20,
   "ADDRESS NUMBER": "20",
   "STREET DIRECTION": "N",
   "STREET": "MICHIGAN",
   "STREET TYPE": "AVE",
   "CITY": "CHICAGO",
   "STATE": "IL",
   "ZIP CODE": 60602,
   "WARD": 42,
   "PRECINCT": 9,
   "WARD PRECINCT": "42-9",
   "POLICE DISTRICT": 1,
   "LATITUDE": 41.882540202,
   "LONGITUDE": -87.624530945,
   "LOCATION": "{'latitude': '41.88254020245772', 'human_address': '{\"address\": \"\", \"city\": \"\", \"state\": \"\", \"zip\": \"\"}', 'longitude': '-87.62453094472777'}",
   "Community Areas": 38,
   "Zip Codes": 14310,
   "Boundaries - ZIP Codes": 41,
   "Census Tracts": 580,
   "Wards": 36
 },
 {
   "PERMIT NUMBER": 1131555,
   "ACCOUNT NUMBER": 376913,
   "SITE NUMBER": 1,
   "LEGAL NAME": "BARTOLI'S PIZZERIA CORP",
   "DOING BUSINESS AS NAME": "BARTOLI'S PIZZERIA",
   "ISSUED DATE": "2018-05-08T00:00:00.000",
   "EXPIRATION DATE": "2018-12-01T00:00:00.000",
   "PAYMENT DATE": "2018-05-08T00:00:00.000",
   "ADDRESS": "1955 W ADDISON ST",
   "ADDRESS NUMBER START": 1955,
   "ADDRESS NUMBER": "1955",
   "STREET DIRECTION": "W",
   "STREET": "ADDISON",
   "STREET TYPE": "ST",
   "CITY": "CHICAGO",
   "STATE": "IL",
   "ZIP CODE": 60613,
   "WARD": 47,
   "PRECINCT": 47,
   "WARD PRECINCT": "47-47",
   "POLICE DISTRICT": 19,
   "LATITUDE": 41.946758312,
   "LONGITUDE": -87.678278499,
   "LOCATION": "{'latitude': '41.9467583121552', 'human_address': '{\"address\": \"\", \"city\": \"\", \"state\": \"\", \"zip\": \"\"}', 'longitude': '-87.6782784985656'}",
   "Community Areas": 46,
   "Zip Codes": 21538,
   "Boundaries - ZIP Codes": 22,
   "Census Tracts": 645,
   "Wards": 18
 },
 {
   "PERMIT NUMBER": 1131554,
   "ACCOUNT NUMBER": 20335,
   "SITE NUMBER": 1,
   "LEGAL NAME": "640 HUBBARD, INC.",
   "DOING BUSINESS AS NAME": "CITY POOL HALL",
   "ISSUED DATE": "2018-03-22T00:00:00.000",
   "EXPIRATION DATE": "2018-12-01T00:00:00.000",
   "PAYMENT DATE": "2018-03-19T00:00:00.000",
   "ADDRESS": "640 W HUBBARD ST",
   "ADDRESS NUMBER START": 640,
   "ADDRESS NUMBER": "640",
   "STREET DIRECTION": "W",
   "STREET": "HUBBARD",
   "STREET TYPE": "ST",
   "CITY": "CHICAGO",
   "STATE": "IL",
   "ZIP CODE": 60654,
   "WARD": 27,
   "PRECINCT": 11,
   "WARD PRECINCT": "27-11",
   "POLICE DISTRICT": 12,
   "LATITUDE": 41.890236753,
   "LONGITUDE": -87.64442683,
   "LOCATION": "{'latitude': '41.89023675339099', 'human_address': '{\"address\": \"\", \"city\": \"\", \"state\": \"\", \"zip\": \"\"}', 'longitude': '-87.64442682991817'}",
   "Community Areas": 25,
   "Zip Codes": 4446,
   "Boundaries - ZIP Codes": 55,
   "Census Tracts": 109,
   "Wards": 46
 },
 {
   "PERMIT NUMBER": 1131553,
   "ACCOUNT NUMBER": 204707,
   "SITE NUMBER": 3,
   "LEGAL NAME": "SERUMIDO, LTD.",
   "DOING BUSINESS AS NAME": "SPACCANAPOLI",
   "ISSUED DATE": "2018-04-12T00:00:00.000",
   "EXPIRATION DATE": "2018-12-01T00:00:00.000",
   "PAYMENT DATE": "2018-03-22T00:00:00.000",
   "ADDRESS": "1769 W SUNNYSIDE AVE",
   "ADDRESS NUMBER START": 1769,
   "ADDRESS NUMBER": "1769",
   "STREET DIRECTION": "W",
   "STREET": "SUNNYSIDE",
   "STREET TYPE": "AVE",
   "CITY": "CHICAGO",
   "STATE": "IL",
   "ZIP CODE": 60640,
   "WARD": 47,
   "PRECINCT": 5,
   "WARD PRECINCT": "47-5",
   "POLICE DISTRICT": 19,
   "LATITUDE": 41.963245267,
   "LONGITUDE": -87.673614188,
   "LOCATION": "{'latitude': '41.963245266688084', 'human_address': '{\"address\": \"\", \"city\": \"\", \"state\": \"\", \"zip\": \"\"}', 'longitude': '-87.67361418778216'}",
   "Community Areas": 31,
   "Zip Codes": 22616,
   "Boundaries - ZIP Codes": 15,
   "Census Tracts": 576,
   "Wards": 18
 },
 {
   "PERMIT NUMBER": 1131552,
   "ACCOUNT NUMBER": 349,
   "SITE NUMBER": 1,
   "LEGAL NAME": "BUSTER CRAB, INC.",
   "DOING BUSINESS AS NAME": "THE BUDLONG HOT CHICKEN",
   "ISSUED DATE": "2018-03-22T00:00:00.000",
   "EXPIRATION DATE": "2018-12-01T00:00:00.000",
   "PAYMENT DATE": "2018-03-21T00:00:00.000",
   "ADDRESS": "1008 W ARMITAGE AVE",
   "ADDRESS NUMBER START": 1008,
   "ADDRESS NUMBER": "1008",
   "STREET DIRECTION": "W",
   "STREET": "ARMITAGE",
   "STREET TYPE": "AVE",
   "CITY": "CHICAGO",
   "STATE": "IL",
   "ZIP CODE": 60614,
   "WARD": 43,
   "PRECINCT": 10,
   "WARD PRECINCT": "43-10",
   "POLICE DISTRICT": 18,
   "LATITUDE": 41.918208568,
   "LONGITUDE": -87.653757688,
   "LOCATION": "{'latitude': '41.91820856763485', 'human_address': '{\"address\": \"\", \"city\": \"\", \"state\": \"\", \"zip\": \"\"}', 'longitude': '-87.65375768752133'}",
   "Community Areas": 68,
   "Zip Codes": 21190,
   "Boundaries - ZIP Codes": 16,
   "Census Tracts": 797,
   "Wards": 34
 },
 {
   "PERMIT NUMBER": 1131551,
   "ACCOUNT NUMBER": 375082,
   "SITE NUMBER": 1,
   "LEGAL NAME": "UMAI, INC.",
   "DOING BUSINESS AS NAME": "UMAI",
   "ISSUED DATE": "2018-04-03T00:00:00.000",
   "EXPIRATION DATE": "2018-12-01T00:00:00.000",
   "PAYMENT DATE": "2018-04-03T00:00:00.000",
   "ADDRESS": "730 S CLARK ST",
   "ADDRESS NUMBER START": 730,
   "ADDRESS NUMBER": "730",
   "STREET DIRECTION": "S",
   "STREET": "CLARK",
   "STREET TYPE": "ST",
   "CITY": "CHICAGO",
   "STATE": "IL",
   "ZIP CODE": 60605,
   "WARD": 4,
   "PRECINCT": 1,
   "WARD PRECINCT": "4-1",
   "POLICE DISTRICT": 1,
   "LATITUDE": 41.872780614,
   "LONGITUDE": -87.630771512,
   "LOCATION": "{'latitude': '41.87278061406621', 'human_address': '{\"address\": \"\", \"city\": \"\", \"state\": \"\", \"zip\": \"\"}', 'longitude': '-87.63077151242979'}",
   "Community Areas": 38,
   "Zip Codes": 14913,
   "Boundaries - ZIP Codes": 35,
   "Census Tracts": 12,
   "Wards": 10
 },
 {
   "PERMIT NUMBER": 1131550,
   "ACCOUNT NUMBER": 7609,
   "SITE NUMBER": 1,
   "LEGAL NAME": "ZIMMIES INC #7",
   "DOING BUSINESS AS NAME": "The Original Pancake House",
   "ISSUED DATE": "2018-03-23T00:00:00.000",
   "EXPIRATION DATE": "2018-12-01T00:00:00.000",
   "PAYMENT DATE": "2018-03-22T00:00:00.000",
   "ADDRESS": "22 E BELLEVUE PL",
   "ADDRESS NUMBER START": 22,
   "ADDRESS NUMBER": "22",
   "STREET DIRECTION": "E",
   "STREET": "BELLEVUE",
   "STREET TYPE": "PL",
   "CITY": "CHICAGO",
   "STATE": "IL",
   "ZIP CODE": 60611,
   "WARD": 42,
   "PRECINCT": 1,
   "WARD PRECINCT": "42-1",
   "POLICE DISTRICT": 18,
   "LATITUDE": 41.901682076,
   "LONGITUDE": -87.627441931,
   "LOCATION": "{'latitude': '41.90168207597354', 'human_address': '{\"address\": \"\", \"city\": \"\", \"state\": \"\", \"zip\": \"\"}', 'longitude': '-87.62744193145738'}",
   "Community Areas": 37,
   "Zip Codes": 21182,
   "Boundaries - ZIP Codes": 6,
   "Census Tracts": 105,
   "Wards": 36
 },
 {
   "PERMIT NUMBER": 1131549,
   "ACCOUNT NUMBER": 396554,
   "SITE NUMBER": 1,
   "LEGAL NAME": "REPLAY ANDERSONVILLE, INC.,",
   "DOING BUSINESS AS NAME": "REPLAY / ELIXIR",
   "ISSUED DATE": "2018-04-10T00:00:00.000",
   "EXPIRATION DATE": "2018-12-01T00:00:00.000",
   "PAYMENT DATE": "2018-03-27T00:00:00.000",
   "ADDRESS": "5356-5358 N CLARK ST",
   "ADDRESS NUMBER START": 5356,
   "ADDRESS NUMBER": "5356-5358",
   "STREET DIRECTION": "N",
   "STREET": "CLARK",
   "STREET TYPE": "ST",
   "CITY": "CHICAGO",
   "STATE": "IL",
   "ZIP CODE": 60640,
   "WARD": 40,
   "PRECINCT": 42,
   "WARD PRECINCT": "40-42",
   "POLICE DISTRICT": 20,
   "LATITUDE": 41.979729777,
   "LONGITUDE": -87.668419027,
   "LOCATION": "{'latitude': '41.979729777066666', 'human_address': '{\"address\": \"\", \"city\": \"\", \"state\": \"\", \"zip\": \"\"}', 'longitude': '-87.66841902665125'}",
   "Community Areas": 76,
   "Zip Codes": 22616,
   "Boundaries - ZIP Codes": 15,
   "Census Tracts": 564,
   "Wards": 24
 },
 {
   "PERMIT NUMBER": 1131548,
   "ACCOUNT NUMBER": 22633,
   "SITE NUMBER": 7,
   "LEGAL NAME": "CHIPOTLE MEXICAN GRILL, INC.",
   "DOING BUSINESS AS NAME": "CHIPOTLE MEXICAN GRILL",
   "ISSUED DATE": "2018-04-04T00:00:00.000",
   "EXPIRATION DATE": "2018-12-01T00:00:00.000",
   "PAYMENT DATE": "2018-03-20T00:00:00.000",
   "ADDRESS": "291 E ONTARIO ST",
   "ADDRESS NUMBER START": 291,
   "ADDRESS NUMBER": "291",
   "STREET DIRECTION": "E",
   "STREET": "ONTARIO",
   "STREET TYPE": "ST",
   "CITY": "CHICAGO",
   "STATE": "IL",
   "ZIP CODE": 60611,
   "WARD": 42,
   "PRECINCT": 41,
   "WARD PRECINCT": "42-41",
   "POLICE DISTRICT": 18,
   "LATITUDE": 41.893293677,
   "LONGITUDE": -87.620392895,
   "LOCATION": "{'latitude': '41.89329367658513', 'human_address': '{\"address\": \"\", \"city\": \"\", \"state\": \"\", \"zip\": \"\"}', 'longitude': '-87.62039289469121'}",
   "Community Areas": 37,
   "Zip Codes": 21182,
   "Boundaries - ZIP Codes": 6,
   "Census Tracts": 159,
   "Wards": 36
 },
 {
   "PERMIT NUMBER": 1131547,
   "ACCOUNT NUMBER": 22633,
   "SITE NUMBER": 35,
   "LEGAL NAME": "CHIPOTLE MEXICAN GRILL, INC.",
   "DOING BUSINESS AS NAME": "CHIPOTLE",
   "ISSUED DATE": "2018-04-04T00:00:00.000",
   "EXPIRATION DATE": "2018-12-01T00:00:00.000",
   "PAYMENT DATE": "2018-03-20T00:00:00.000",
   "ADDRESS": "311 S WACKER DR",
   "ADDRESS NUMBER START": 311,
   "ADDRESS NUMBER": "311",
   "STREET DIRECTION": "S",
   "STREET": "WACKER",
   "STREET TYPE": "DR",
   "CITY": "CHICAGO",
   "STATE": "IL",
   "ZIP CODE": 60606,
   "WARD": 42,
   "PRECINCT": 12,
   "WARD PRECINCT": "42-12",
   "POLICE DISTRICT": 1,
   "LATITUDE": 41.877791648,
   "LONGITUDE": -87.636524344,
   "LOCATION": "{'latitude': '41.877791648104406', 'human_address': '{\"address\": \"\", \"city\": \"\", \"state\": \"\", \"zip\": \"\"}', 'longitude': '-87.63652434443534'}",
   "Community Areas": 38,
   "Zip Codes": 14914,
   "Boundaries - ZIP Codes": 46,
   "Census Tracts": 92,
   "Wards": 36
 },
 {
   "PERMIT NUMBER": 1131546,
   "ACCOUNT NUMBER": 350215,
   "SITE NUMBER": 2,
   "LEGAL NAME": "REINS INTERNATIONAL CHICAGO, INC.",
   "DOING BUSINESS AS NAME": "GYU-KAKU RESTAURANT",
   "ISSUED DATE": "2018-06-13T00:00:00.000",
   "EXPIRATION DATE": "2018-12-01T00:00:00.000",
   "PAYMENT DATE": "2018-03-27T00:00:00.000",
   "ADDRESS": "1364 W RANDOLPH ST",
   "ADDRESS NUMBER START": 1364,
   "ADDRESS NUMBER": "1364",
   "STREET DIRECTION": "W",
   "STREET": "RANDOLPH",
   "STREET TYPE": "ST",
   "CITY": "CHICAGO",
   "STATE": "IL",
   "ZIP CODE": 60607,
   "WARD": 27,
   "PRECINCT": 33,
   "WARD PRECINCT": "27-33",
   "POLICE DISTRICT": 12,
   "LATITUDE": 41.884288898,
   "LONGITUDE": -87.661279418,
   "LOCATION": "{'latitude': '41.88428889843475', 'human_address': '{\"address\": \"\", \"city\": \"\", \"state\": \"\", \"zip\": \"\"}', 'longitude': '-87.66127941800869'}",
   "Community Areas": 29,
   "Zip Codes": 14917,
   "Boundaries - ZIP Codes": 44,
   "Census Tracts": 63,
   "Wards": 46
 },
 {
   "PERMIT NUMBER": 1131545,
   "ACCOUNT NUMBER": 350215,
   "SITE NUMBER": 1,
   "LEGAL NAME": "REINS INTERNATIONAL CHICAGO, INC.",
   "DOING BUSINESS AS NAME": "GYU-KAKU RESTAURANT",
   "ISSUED DATE": "2018-06-04T00:00:00.000",
   "EXPIRATION DATE": "2018-12-01T00:00:00.000",
   "PAYMENT DATE": "2018-03-27T00:00:00.000",
   "ADDRESS": "210 E OHIO ST",
   "ADDRESS NUMBER START": 210,
   "ADDRESS NUMBER": "210",
   "STREET DIRECTION": "E",
   "STREET": "OHIO",
   "STREET TYPE": "ST",
   "CITY": "CHICAGO",
   "STATE": "IL",
   "ZIP CODE": 60611,
   "WARD": 42,
   "PRECINCT": 41,
   "WARD PRECINCT": "42-41",
   "POLICE DISTRICT": 18,
   "LATITUDE": 41.892677172,
   "LONGITUDE": -87.622194494,
   "LOCATION": "{'latitude': '41.89267717185467', 'human_address': '{\"address\": \"\", \"city\": \"\", \"state\": \"\", \"zip\": \"\"}', 'longitude': '-87.62219449447267'}",
   "Community Areas": 37,
   "Zip Codes": 21182,
   "Boundaries - ZIP Codes": 6,
   "Census Tracts": 159,
   "Wards": 36
 },
 {
   "PERMIT NUMBER": 1131544,
   "ACCOUNT NUMBER": 7551,
   "SITE NUMBER": 90,
   "LEGAL NAME": "BOND DRUG COMPANY OF ILLINOIS, LLC",
   "DOING BUSINESS AS NAME": "WALGREENS #15921",
   "ISSUED DATE": "2018-03-30T00:00:00.000",
   "EXPIRATION DATE": "2018-12-01T00:00:00.000",
   "PAYMENT DATE": "2018-03-22T00:00:00.000",
   "ADDRESS": "410 N MICHIGAN AVE",
   "ADDRESS NUMBER START": 410,
   "ADDRESS NUMBER": "410",
   "STREET DIRECTION": "N",
   "STREET": "MICHIGAN",
   "STREET TYPE": "AVE",
   "CITY": "CHICAGO",
   "STATE": "IL",
   "ZIP CODE": 60611,
   "WARD": 42,
   "PRECINCT": 48,
   "WARD PRECINCT": "42-48",
   "POLICE DISTRICT": 18,
   "LATITUDE": 41.889874791,
   "LONGITUDE": -87.624259761,
   "LOCATION": "{'latitude': '41.8898747912625', 'human_address': '{\"address\": \"\", \"city\": \"\", \"state\": \"\", \"zip\": \"\"}', 'longitude': '-87.62425976144404'}",
   "Community Areas": 37,
   "Zip Codes": 21182,
   "Boundaries - ZIP Codes": 6,
   "Census Tracts": 626,
   "Wards": 36
 },
 {
   "PERMIT NUMBER": 1131543,
   "ACCOUNT NUMBER": 394113,
   "SITE NUMBER": 1,
   "LEGAL NAME": "SOUTHPORT BREWPUB, LLC",
   "DOING BUSINESS AS NAME": "CORRIDOR BREWERY AND PROVISIONS",
   "ISSUED DATE": "2018-03-22T00:00:00.000",
   "EXPIRATION DATE": "2018-12-01T00:00:00.000",
   "PAYMENT DATE": "2018-03-21T00:00:00.000",
   "ADDRESS": "3446 N SOUTHPORT AVE",
   "ADDRESS NUMBER START": 3446,
   "ADDRESS NUMBER": "3446",
   "STREET DIRECTION": "N",
   "STREET": "SOUTHPORT",
   "STREET TYPE": "AVE",
   "CITY": "CHICAGO",
   "STATE": "IL",
   "ZIP CODE": 60657,
   "WARD": 44,
   "PRECINCT": 43,
   "WARD PRECINCT": "44-43",
   "POLICE DISTRICT": 19,
   "LATITUDE": 41.944844005,
   "LONGITUDE": -87.664103864,
   "LOCATION": "{'latitude': '41.944844005377085', 'human_address': '{\"address\": \"\", \"city\": \"\", \"state\": \"\", \"zip\": \"\"}', 'longitude': '-87.66410386384709'}",
   "Community Areas": 57,
   "Zip Codes": 4449,
   "Boundaries - ZIP Codes": 22,
   "Census Tracts": 239,
   "Wards": 25
 },
 {
   "PERMIT NUMBER": 1131542,
   "ACCOUNT NUMBER": 65004,
   "SITE NUMBER": 24,
   "LEGAL NAME": "POTBELLY SANDWICH WORKS, LLC",
   "DOING BUSINESS AS NAME": "POTBELLY SANDWICH WORKS LLC",
   "ISSUED DATE": "2018-04-10T00:00:00.000",
   "EXPIRATION DATE": "2018-12-01T00:00:00.000",
   "PAYMENT DATE": "2018-03-20T00:00:00.000",
   "ADDRESS": "1459 W TAYLOR ST",
   "ADDRESS NUMBER START": 1459,
   "ADDRESS NUMBER": "1459",
   "STREET DIRECTION": "W",
   "STREET": "TAYLOR",
   "STREET TYPE": "ST",
   "CITY": "CHICAGO",
   "STATE": "IL",
   "ZIP CODE": 60607,
   "WARD": 28,
   "PRECINCT": 38,
   "WARD PRECINCT": "28-38",
   "POLICE DISTRICT": 12,
   "LATITUDE": 41.869191596,
   "LONGITUDE": -87.664013343,
   "LOCATION": "{'latitude': '41.86919159569781', 'human_address': '{\"address\": \"\", \"city\": \"\", \"state\": \"\", \"zip\": \"\"}', 'longitude': '-87.66401334265312'}",
   "Community Areas": 29,
   "Zip Codes": 14917,
   "Boundaries - ZIP Codes": 44,
   "Census Tracts": 758,
   "Wards": 23
 },
 {
   "PERMIT NUMBER": 1131541,
   "ACCOUNT NUMBER": 369402,
   "SITE NUMBER": 1,
   "LEGAL NAME": "LAST BAY BEER COMPANY LLC",
   "DOING BUSINESS AS NAME": "DRYHOP BREWERS",
   "ISSUED DATE": "2018-03-22T00:00:00.000",
   "EXPIRATION DATE": "2018-12-01T00:00:00.000",
   "PAYMENT DATE": "2018-03-22T00:00:00.000",
   "ADDRESS": "3155 N BROADWAY",
   "ADDRESS NUMBER START": 3155,
   "ADDRESS NUMBER": "3155",
   "STREET DIRECTION": "N",
   "STREET": "BROADWAY",
   "STREET TYPE": "",
   "CITY": "CHICAGO",
   "STATE": "IL",
   "ZIP CODE": 60657,
   "WARD": 44,
   "PRECINCT": 30,
   "WARD PRECINCT": "44-30",
   "POLICE DISTRICT": 19,
   "LATITUDE": 41.939309677,
   "LONGITUDE": -87.644228371,
   "LOCATION": "{'latitude': '41.939309677466014', 'human_address': '{\"address\": \"\", \"city\": \"\", \"state\": \"\", \"zip\": \"\"}', 'longitude': '-87.64422837055051'}",
   "Community Areas": 57,
   "Zip Codes": 4449,
   "Boundaries - ZIP Codes": 22,
   "Census Tracts": 683,
   "Wards": 25
 },
 {
   "PERMIT NUMBER": 1131540,
   "ACCOUNT NUMBER": 403926,
   "SITE NUMBER": 1,
   "LEGAL NAME": "LBT CHICAGO, LLC",
   "DOING BUSINESS AS NAME": "THE LITTLE BEET TABLE",
   "ISSUED DATE": "2018-08-01T00:00:00.000",
   "EXPIRATION DATE": "2018-12-01T00:00:00.000",
   "PAYMENT DATE": "2018-03-29T00:00:00.000",
   "ADDRESS": "845-47 N STATE ST",
   "ADDRESS NUMBER START": 845,
   "ADDRESS NUMBER": "845-47",
   "STREET DIRECTION": "N",
   "STREET": "STATE",
   "STREET TYPE": "ST",
   "CITY": "CHICAGO",
   "STATE": "IL",
   "ZIP CODE": 60610,
   "WARD": 2,
   "PRECINCT": 32,
   "WARD PRECINCT": "2-32",
   "POLICE DISTRICT": 18,
   "LATITUDE": 41.897986585,
   "LONGITUDE": -87.628088398,
   "LOCATION": "{'latitude': '41.8979865852922', 'human_address': '{\"address\": \"\", \"city\": \"\", \"state\": \"\", \"zip\": \"\"}', 'longitude': '-87.62808839759518'}",
   "Community Areas": 37,
   "Zip Codes": 21182,
   "Boundaries - ZIP Codes": 6,
   "Census Tracts": 104,
   "Wards": 11
 },
 {
   "PERMIT NUMBER": 1131539,
   "ACCOUNT NUMBER": 290302,
   "SITE NUMBER": 1,
   "LEGAL NAME": "3811 SOUTHPORT LLC",
   "DOING BUSINESS AS NAME": "WRIGLEYVILLE DAIRY QUEEN",
   "ISSUED DATE": "2018-05-14T00:00:00.000",
   "EXPIRATION DATE": "2018-12-01T00:00:00.000",
   "PAYMENT DATE": "2018-03-22T00:00:00.000",
   "ADDRESS": "3811 N SOUTHPORT AVE",
   "ADDRESS NUMBER START": 3811,
   "ADDRESS NUMBER": "3811",
   "STREET DIRECTION": "N",
   "STREET": "SOUTHPORT",
   "STREET TYPE": "AVE",
   "CITY": "CHICAGO",
   "STATE": "IL",
   "ZIP CODE": 60613,
   "WARD": 44,
   "PRECINCT": 25,
   "WARD PRECINCT": "44-25",
   "POLICE DISTRICT": 19,
   "LATITUDE": 41.951112529,
   "LONGITUDE": -87.663982089,
   "LOCATION": "{'latitude': '41.95111252904561', 'human_address': '{\"address\": \"\", \"city\": \"\", \"state\": \"\", \"zip\": \"\"}', 'longitude': '-87.66398208917064'}",
   "Community Areas": 57,
   "Zip Codes": 21186,
   "Boundaries - ZIP Codes": 53,
   "Census Tracts": 725,
   "Wards": 25
 },
 {
   "PERMIT NUMBER": 1131538,
   "ACCOUNT NUMBER": 268517,
   "SITE NUMBER": 1,
   "LEGAL NAME": "KROLL'S SOUTH LOOP, LLC",
   "DOING BUSINESS AS NAME": "KROLL'S SOUTH LOOP",
   "ISSUED DATE": "2018-03-26T00:00:00.000",
   "EXPIRATION DATE": "2018-12-01T00:00:00.000",
   "PAYMENT DATE": "2018-03-23T00:00:00.000",
   "ADDRESS": "1736 S MICHIGAN AVE",
   "ADDRESS NUMBER START": 1736,
   "ADDRESS NUMBER": "1736",
   "STREET DIRECTION": "S",
   "STREET": "MICHIGAN",
   "STREET TYPE": "AVE",
   "CITY": "CHICAGO",
   "STATE": "IL",
   "ZIP CODE": null,
   "WARD": 3,
   "PRECINCT": 40,
   "WARD PRECINCT": "3-40",
   "POLICE DISTRICT": 1,
   "LATITUDE": 41.85799082,
   "LONGITUDE": -87.624082876,
   "LOCATION": "{'latitude': '41.85799082041387', 'human_address': '{\"address\": \"\", \"city\": \"\", \"state\": \"\", \"zip\": \"\"}', 'longitude': '-87.62408287577486'}",
   "Community Areas": 34,
   "Zip Codes": 21194,
   "Boundaries - ZIP Codes": 40,
   "Census Tracts": 374,
   "Wards": 9
 },
 {
   "PERMIT NUMBER": 1131537,
   "ACCOUNT NUMBER": 14853,
   "SITE NUMBER": 1,
   "LEGAL NAME": "STRUGA, INC.",
   "DOING BUSINESS AS NAME": "TUTTO ITALIANO",
   "ISSUED DATE": "2018-07-13T00:00:00.000",
   "EXPIRATION DATE": "2018-12-01T00:00:00.000",
   "PAYMENT DATE": "2018-03-28T00:00:00.000",
   "ADDRESS": "501 S WELLS ST",
   "ADDRESS NUMBER START": 501,
   "ADDRESS NUMBER": "501",
   "STREET DIRECTION": "S",
   "STREET": "WELLS",
   "STREET TYPE": "ST",
   "CITY": "CHICAGO",
   "STATE": "IL",
   "ZIP CODE": 60607,
   "WARD": 25,
   "PRECINCT": 49,
   "WARD PRECINCT": "25-49",
   "POLICE DISTRICT": 1,
   "LATITUDE": 41.875537195,
   "LONGITUDE": -87.633510218,
   "LOCATION": "{'latitude': '41.87553719537306', 'human_address': '{\"address\": \"\", \"city\": \"\", \"state\": \"\", \"zip\": \"\"}', 'longitude': '-87.6335102177828'}",
   "Community Areas": 38,
   "Zip Codes": 14917,
   "Boundaries - ZIP Codes": 35,
   "Census Tracts": 92,
   "Wards": 26
 },
 {
   "PERMIT NUMBER": 1131535,
   "ACCOUNT NUMBER": 16163,
   "SITE NUMBER": 1,
   "LEGAL NAME": "MAX ENTERPRISES LTD.",
   "DOING BUSINESS AS NAME": "DUNLAY'S ON CLARK",
   "ISSUED DATE": "2018-03-06T00:00:00.000",
   "EXPIRATION DATE": "2018-12-01T00:00:00.000",
   "PAYMENT DATE": "2018-03-06T00:00:00.000",
   "ADDRESS": "2600 N CLARK ST",
   "ADDRESS NUMBER START": 2600,
   "ADDRESS NUMBER": "2600",
   "STREET DIRECTION": "N",
   "STREET": "CLARK",
   "STREET TYPE": "ST",
   "CITY": "CHICAGO",
   "STATE": "IL",
   "ZIP CODE": 60614,
   "WARD": 43,
   "PRECINCT": 45,
   "WARD PRECINCT": "43-45",
   "POLICE DISTRICT": 19,
   "LATITUDE": 41.929600584,
   "LONGITUDE": -87.643051212,
   "LOCATION": "{'latitude': '41.92960058367002', 'human_address': '{\"address\": \"\", \"city\": \"\", \"state\": \"\", \"zip\": \"\"}', 'longitude': '-87.64305121220876'}",
   "Community Areas": 68,
   "Zip Codes": 21190,
   "Boundaries - ZIP Codes": 16,
   "Census Tracts": 794,
   "Wards": 34
 },
 {
   "PERMIT NUMBER": 1131533,
   "ACCOUNT NUMBER": 417537,
   "SITE NUMBER": 1,
   "LEGAL NAME": "POKE GO LLC",
   "DOING BUSINESS AS NAME": "POKE POKE",
   "ISSUED DATE": "2018-03-12T00:00:00.000",
   "EXPIRATION DATE": "2018-12-01T00:00:00.000",
   "PAYMENT DATE": "2018-03-12T00:00:00.000",
   "ADDRESS": "118 S WABASH AVE",
   "ADDRESS NUMBER START": 118,
   "ADDRESS NUMBER": "118",
   "STREET DIRECTION": "S",
   "STREET": "WABASH",
   "STREET TYPE": "AVE",
   "CITY": "CHICAGO",
   "STATE": "",
   "ZIP CODE": 60603,
   "WARD": 42,
   "PRECINCT": 33,
   "WARD PRECINCT": "42-33",
   "POLICE DISTRICT": 1,
   "LATITUDE": 41.880312018,
   "LONGITUDE": -87.626304676,
   "LOCATION": "{'latitude': '41.88031201794687', 'human_address': '{\"address\": \"\", \"city\": \"\", \"state\": \"\", \"zip\": \"\"}', 'longitude': '-87.62630467620856'}",
   "Community Areas": 38,
   "Zip Codes": 14311,
   "Boundaries - ZIP Codes": 34,
   "Census Tracts": 367,
   "Wards": 36
 },
 {
   "PERMIT NUMBER": 1131532,
   "ACCOUNT NUMBER": 316315,
   "SITE NUMBER": 1,
   "LEGAL NAME": "CHOCOLAT, LLC",
   "DOING BUSINESS AS NAME": "ALLIANCE BAKERY",
   "ISSUED DATE": "2018-04-13T00:00:00.000",
   "EXPIRATION DATE": "2018-12-01T00:00:00.000",
   "PAYMENT DATE": "2018-03-16T00:00:00.000",
   "ADDRESS": "1736 W DIVISION ST",
   "ADDRESS NUMBER START": 1736,
   "ADDRESS NUMBER": "1736",
   "STREET DIRECTION": "W",
   "STREET": "DIVISION",
   "STREET TYPE": "ST",
   "CITY": "CHICAGO",
   "STATE": "IL",
   "ZIP CODE": 60622,
   "WARD": 1,
   "PRECINCT": 5,
   "WARD PRECINCT": "1-5",
   "POLICE DISTRICT": 14,
   "LATITUDE": 41.903389919,
   "LONGITUDE": -87.671521816,
   "LOCATION": "{'latitude': '41.90338991864267', 'human_address': '{\"address\": \"\", \"city\": \"\", \"state\": \"\", \"zip\": \"\"}', 'longitude': '-87.671521816288'}",
   "Community Areas": 25,
   "Zip Codes": 21560,
   "Boundaries - ZIP Codes": 4,
   "Census Tracts": 481,
   "Wards": 41
 },
 {
   "PERMIT NUMBER": 1131530,
   "ACCOUNT NUMBER": 294504,
   "SITE NUMBER": 1,
   "LEGAL NAME": "PEOPLE CHICAGO INC.",
   "DOING BUSINESS AS NAME": "WYNWOOD",
   "ISSUED DATE": "2018-04-03T00:00:00.000",
   "EXPIRATION DATE": "2018-12-01T00:00:00.000",
   "PAYMENT DATE": "2018-04-03T00:00:00.000",
   "ADDRESS": "1560 N MILWAUKEE AVE",
   "ADDRESS NUMBER START": 1560,
   "ADDRESS NUMBER": "1560",
   "STREET DIRECTION": "N",
   "STREET": "MILWAUKEE",
   "STREET TYPE": "AVE",
   "CITY": "CHICAGO",
   "STATE": "IL",
   "ZIP CODE": 60622,
   "WARD": 1,
   "PRECINCT": 8,
   "WARD PRECINCT": "1-8",
   "POLICE DISTRICT": 14,
   "LATITUDE": 41.909773712,
   "LONGITUDE": -87.676747945,
   "LOCATION": "{'latitude': '41.9097737118627', 'human_address': '{\"address\": \"\", \"city\": \"\", \"state\": \"\", \"zip\": \"\"}', 'longitude': '-87.67674794453644'}",
   "Community Areas": 25,
   "Zip Codes": 21560,
   "Boundaries - ZIP Codes": 4,
   "Census Tracts": 481,
   "Wards": 41
 },
 {
   "PERMIT NUMBER": 1131529,
   "ACCOUNT NUMBER": 3085,
   "SITE NUMBER": 1,
   "LEGAL NAME": "JAKE'S PUP IN THE RUF INC",
   "DOING BUSINESS AS NAME": "JAKE'S PUP IN THE RUF INC",
   "ISSUED DATE": "2018-03-23T00:00:00.000",
   "EXPIRATION DATE": "2018-12-01T00:00:00.000",
   "PAYMENT DATE": "2018-03-23T00:00:00.000",
   "ADDRESS": "4401 N SHERIDAN RD",
   "ADDRESS NUMBER START": 4401,
   "ADDRESS NUMBER": "4401",
   "STREET DIRECTION": "N",
   "STREET": "SHERIDAN",
   "STREET TYPE": "RD",
   "CITY": "CHICAGO",
   "STATE": "IL",
   "ZIP CODE": 60640,
   "WARD": 46,
   "PRECINCT": 47,
   "WARD PRECINCT": "46-47",
   "POLICE DISTRICT": 19,
   "LATITUDE": 41.961824921,
   "LONGITUDE": -87.654601961,
   "LOCATION": "{'latitude': '41.96182492146229', 'human_address': '{\"address\": \"\", \"city\": \"\", \"state\": \"\", \"zip\": \"\"}', 'longitude': '-87.65460196059529'}",
   "Community Areas": 31,
   "Zip Codes": 21186,
   "Boundaries - ZIP Codes": 15,
   "Census Tracts": 20,
   "Wards": 39
 },
 {
   "PERMIT NUMBER": 1131528,
   "ACCOUNT NUMBER": 340503,
   "SITE NUMBER": 1,
   "LEGAL NAME": "BOSPHORUS INC.",
   "DOING BUSINESS AS NAME": "Fifolet Cajun",
   "ISSUED DATE": "2018-04-03T00:00:00.000",
   "EXPIRATION DATE": "2018-12-01T00:00:00.000",
   "PAYMENT DATE": "2018-04-03T00:00:00.000",
   "ADDRESS": "1942 W DIVISION ST",
   "ADDRESS NUMBER START": 1942,
   "ADDRESS NUMBER": "1942",
   "STREET DIRECTION": "W",
   "STREET": "DIVISION",
   "STREET TYPE": "ST",
   "CITY": "CHICAGO",
   "STATE": "IL",
   "ZIP CODE": 60622,
   "WARD": 1,
   "PRECINCT": 17,
   "WARD PRECINCT": "1-17",
   "POLICE DISTRICT": 14,
   "LATITUDE": 41.903311984,
   "LONGITUDE": -87.676573371,
   "LOCATION": "{'latitude': '41.903311984082535', 'human_address': '{\"address\": \"\", \"city\": \"\", \"state\": \"\", \"zip\": \"\"}', 'longitude': '-87.67657337106594'}",
   "Community Areas": 25,
   "Zip Codes": 21560,
   "Boundaries - ZIP Codes": 4,
   "Census Tracts": 481,
   "Wards": 41
 },
 {
   "PERMIT NUMBER": 1131527,
   "ACCOUNT NUMBER": 16437,
   "SITE NUMBER": 1,
   "LEGAL NAME": "WARNNING ENTERPRISES, INC.",
   "DOING BUSINESS AS NAME": "BIRD'S NEST",
   "ISSUED DATE": "2018-03-22T00:00:00.000",
   "EXPIRATION DATE": "2018-12-01T00:00:00.000",
   "PAYMENT DATE": "2018-03-21T00:00:00.000",
   "ADDRESS": "2500 N SOUTHPORT AVE",
   "ADDRESS NUMBER START": 2500,
   "ADDRESS NUMBER": "2500",
   "STREET DIRECTION": "N",
   "STREET": "SOUTHPORT",
   "STREET TYPE": "AVE",
   "CITY": "CHICAGO",
   "STATE": "IL",
   "ZIP CODE": 60614,
   "WARD": 2,
   "PRECINCT": 13,
   "WARD PRECINCT": "2-13",
   "POLICE DISTRICT": 19,
   "LATITUDE": 41.92707497,
   "LONGITUDE": -87.663531089,
   "LOCATION": "{'latitude': '41.92707497038625', 'human_address': '{\"address\": \"\", \"city\": \"\", \"state\": \"\", \"zip\": \"\"}', 'longitude': '-87.66353108891671'}",
   "Community Areas": 68,
   "Zip Codes": 21190,
   "Boundaries - ZIP Codes": 16,
   "Census Tracts": 770,
   "Wards": 11
 },
 {
   "PERMIT NUMBER": 1131526,
   "ACCOUNT NUMBER": 369507,
   "SITE NUMBER": 1,
   "LEGAL NAME": "KAT'S I, INC.",
   "DOING BUSINESS AS NAME": "Paulines",
   "ISSUED DATE": "2018-03-12T00:00:00.000",
   "EXPIRATION DATE": "2019-02-28T00:00:00.000",
   "PAYMENT DATE": "2018-03-12T00:00:00.000",
   "ADDRESS": "1752-1754 W BALMORAL AVE",
   "ADDRESS NUMBER START": 1752,
   "ADDRESS NUMBER": "1752-1754",
   "STREET DIRECTION": "W",
   "STREET": "BALMORAL",
   "STREET TYPE": "AVE",
   "CITY": "CHICAGO",
   "STATE": "IL",
   "ZIP CODE": 60640,
   "WARD": 40,
   "PRECINCT": 41,
   "WARD PRECINCT": "40-41",
   "POLICE DISTRICT": 20,
   "LATITUDE": 41.979860939,
   "LONGITUDE": -87.67420413,
   "LOCATION": "{'latitude': '41.97986093909706', 'human_address': '{\"address\": \"\", \"city\": \"\", \"state\": \"\", \"zip\": \"\"}', 'longitude': '-87.67420413029149'}",
   "Community Areas": 76,
   "Zip Codes": 22616,
   "Boundaries - ZIP Codes": 15,
   "Census Tracts": 564,
   "Wards": 24
 },
 {
   "PERMIT NUMBER": 1131525,
   "ACCOUNT NUMBER": 330859,
   "SITE NUMBER": 2,
   "LEGAL NAME": "FLORIOLE BAKERY, L.L.C.",
   "DOING BUSINESS AS NAME": "FLORIOLE BAKERY LLC",
   "ISSUED DATE": "2018-04-03T00:00:00.000",
   "EXPIRATION DATE": "2018-12-01T00:00:00.000",
   "PAYMENT DATE": "2018-04-03T00:00:00.000",
   "ADDRESS": "1220 W WEBSTER AVE",
   "ADDRESS NUMBER START": 1220,
   "ADDRESS NUMBER": "1220",
   "STREET DIRECTION": "W",
   "STREET": "WEBSTER",
   "STREET TYPE": "AVE",
   "CITY": "CHICAGO",
   "STATE": "IL",
   "ZIP CODE": 60614,
   "WARD": 43,
   "PRECINCT": 47,
   "WARD PRECINCT": "43-47",
   "POLICE DISTRICT": 18,
   "LATITUDE": 41.921763099,
   "LONGITUDE": -87.659241874,
   "LOCATION": "{'latitude': '41.92176309903512', 'human_address': '{\"address\": \"\", \"city\": \"\", \"state\": \"\", \"zip\": \"\"}', 'longitude': '-87.65924187372441'}",
   "Community Areas": 68,
   "Zip Codes": 21190,
   "Boundaries - ZIP Codes": 16,
   "Census Tracts": 210,
   "Wards": 34
 },
 {
   "PERMIT NUMBER": 1131520,
   "ACCOUNT NUMBER": 7471,
   "SITE NUMBER": 1,
   "LEGAL NAME": "MAVERICK ORGANIZATION INC",
   "DOING BUSINESS AS NAME": "TEDINO'S",
   "ISSUED DATE": "2018-03-23T00:00:00.000",
   "EXPIRATION DATE": "2018-12-01T00:00:00.000",
   "PAYMENT DATE": "2018-03-22T00:00:00.000",
   "ADDRESS": "5335 N SHERIDAN RD",
   "ADDRESS NUMBER START": 5335,
   "ADDRESS NUMBER": "5335",
   "STREET DIRECTION": "N",
   "STREET": "SHERIDAN",
   "STREET TYPE": "RD",
   "CITY": "CHICAGO",
   "STATE": "IL",
   "ZIP CODE": 60640,
   "WARD": 48,
   "PRECINCT": 9,
   "WARD PRECINCT": "48-9",
   "POLICE DISTRICT": 20,
   "LATITUDE": 41.979185399,
   "LONGITUDE": -87.654911628,
   "LOCATION": "{'latitude': '41.97918539940176', 'human_address': '{\"address\": \"\", \"city\": \"\", \"state\": \"\", \"zip\": \"\"}', 'longitude': '-87.65491162783847'}",
   "Community Areas": 76,
   "Zip Codes": 22616,
   "Boundaries - ZIP Codes": 15,
   "Census Tracts": 93,
   "Wards": 16
 },
 {
   "PERMIT NUMBER": 1131517,
   "ACCOUNT NUMBER": 390335,
   "SITE NUMBER": 1,
   "LEGAL NAME": "HACIENDA LA AMISTAD RESTAURANT, CORPORATION",
   "DOING BUSINESS AS NAME": "HACIENDA LA AMISTAD RESTAURANT, CORPORATION",
   "ISSUED DATE": "2018-03-15T00:00:00.000",
   "EXPIRATION DATE": "2018-12-01T00:00:00.000",
   "PAYMENT DATE": "2018-03-15T00:00:00.000",
   "ADDRESS": "1914 W MONTROSE AVE",
   "ADDRESS NUMBER START": 1914,
   "ADDRESS NUMBER": "1914",
   "STREET DIRECTION": "W",
   "STREET": "MONTROSE",
   "STREET TYPE": "AVE",
   "CITY": "CHICAGO",
   "STATE": "IL",
   "ZIP CODE": 60613,
   "WARD": 47,
   "PRECINCT": 10,
   "WARD PRECINCT": "47-10",
   "POLICE DISTRICT": 19,
   "LATITUDE": 41.961594915,
   "LONGITUDE": -87.676663865,
   "LOCATION": "{'latitude': '41.961594914876564', 'human_address': '{\"address\": \"\", \"city\": \"\", \"state\": \"\", \"zip\": \"\"}', 'longitude': '-87.67666386545389'}",
   "Community Areas": 6,
   "Zip Codes": 22616,
   "Boundaries - ZIP Codes": 15,
   "Census Tracts": 225,
   "Wards": 18
 },
 {
   "PERMIT NUMBER": 1131515,
   "ACCOUNT NUMBER": 272987,
   "SITE NUMBER": 1,
   "LEGAL NAME": "BAR COMPANY, LLC",
   "DOING BUSINESS AS NAME": "CACTUS BAR AND GRILL",
   "ISSUED DATE": "2018-03-22T00:00:00.000",
   "EXPIRATION DATE": "2018-12-01T00:00:00.000",
   "PAYMENT DATE": "2018-03-20T00:00:00.000",
   "ADDRESS": "404-412 S WELLS ST",
   "ADDRESS NUMBER START": 404,
   "ADDRESS NUMBER": "404-412",
   "STREET DIRECTION": "S",
   "STREET": "WELLS",
   "STREET TYPE": "ST",
   "CITY": "CHICAGO",
   "STATE": "IL",
   "ZIP CODE": 60607,
   "WARD": 25,
   "PRECINCT": 49,
   "WARD PRECINCT": "25-49",
   "POLICE DISTRICT": 1,
   "LATITUDE": 41.876694156,
   "LONGITUDE": -87.633836838,
   "LOCATION": "{'latitude': '41.8766941556357', 'human_address': '{\"address\": \"\", \"city\": \"\", \"state\": \"\", \"zip\": \"\"}', 'longitude': '-87.63383683833278'}",
   "Community Areas": 38,
   "Zip Codes": 14917,
   "Boundaries - ZIP Codes": 44,
   "Census Tracts": 92,
   "Wards": 26
 },
 {
   "PERMIT NUMBER": 1131513,
   "ACCOUNT NUMBER": 28661,
   "SITE NUMBER": 1,
   "LEGAL NAME": "KIRCH-LO, INC.",
   "DOING BUSINESS AS NAME": "RECLAIMED BAR AND RESTAURANT",
   "ISSUED DATE": "2018-03-14T00:00:00.000",
   "EXPIRATION DATE": "2018-12-01T00:00:00.000",
   "PAYMENT DATE": "2018-03-14T00:00:00.000",
   "ADDRESS": "3655 N WESTERN AVE",
   "ADDRESS NUMBER START": 3655,
   "ADDRESS NUMBER": "3655",
   "STREET DIRECTION": "N",
   "STREET": "WESTERN",
   "STREET TYPE": "AVE",
   "CITY": "CHICAGO",
   "STATE": "",
   "ZIP CODE": 60618,
   "WARD": 47,
   "PRECINCT": 7,
   "WARD PRECINCT": "47-7",
   "POLICE DISTRICT": 19,
   "LATITUDE": 41.948345865,
   "LONGITUDE": -87.688155489,
   "LOCATION": "{'latitude': '41.948345864607994', 'human_address': '{\"address\": \"\", \"city\": \"\", \"state\": \"\", \"zip\": \"\"}', 'longitude': '-87.6881554885054'}",
   "Community Areas": 46,
   "Zip Codes": 21538,
   "Boundaries - ZIP Codes": 39,
   "Census Tracts": 613,
   "Wards": 18
 },
 {
   "PERMIT NUMBER": 1131512,
   "ACCOUNT NUMBER": 421785,
   "SITE NUMBER": 1,
   "LEGAL NAME": "WILDBERRY PANCAKES & CAFE IV INC.",
   "DOING BUSINESS AS NAME": "WILDBERRY PANCAKES & CAFE",
   "ISSUED DATE": "2018-03-08T00:00:00.000",
   "EXPIRATION DATE": "2018-12-01T00:00:00.000",
   "PAYMENT DATE": "2018-03-08T00:00:00.000",
   "ADDRESS": "196 E PEARSON ST",
   "ADDRESS NUMBER START": 196,
   "ADDRESS NUMBER": "196",
   "STREET DIRECTION": "E",
   "STREET": "PEARSON",
   "STREET TYPE": "ST",
   "CITY": "CHICAGO",
   "STATE": "",
   "ZIP CODE": 60611,
   "WARD": 2,
   "PRECINCT": 10,
   "WARD PRECINCT": "2-10",
   "POLICE DISTRICT": 18,
   "LATITUDE": 41.897721501,
   "LONGITUDE": -87.622035476,
   "LOCATION": "{'latitude': '41.897721501377255', 'human_address': '{\"address\": \"\", \"city\": \"\", \"state\": \"\", \"zip\": \"\"}', 'longitude': '-87.62203547561978'}",
   "Community Areas": 37,
   "Zip Codes": 21182,
   "Boundaries - ZIP Codes": 6,
   "Census Tracts": 233,
   "Wards": 11
 },
 {
   "PERMIT NUMBER": 1131511,
   "ACCOUNT NUMBER": 64048,
   "SITE NUMBER": 3,
   "LEGAL NAME": "AT THE TRACKS, LTD",
   "DOING BUSINESS AS NAME": "JEFFERSON TAP AND GRILLE AND THE LOFT",
   "ISSUED DATE": "2018-03-22T00:00:00.000",
   "EXPIRATION DATE": "2018-12-01T00:00:00.000",
   "PAYMENT DATE": "2018-03-22T00:00:00.000",
   "ADDRESS": "323-25 N JEFFERSON ST",
   "ADDRESS NUMBER START": 323,
   "ADDRESS NUMBER": "323-25",
   "STREET DIRECTION": "N",
   "STREET": "JEFFERSON",
   "STREET TYPE": "ST",
   "CITY": "CHICAGO",
   "STATE": "IL",
   "ZIP CODE": 60661,
   "WARD": 42,
   "PRECINCT": 18,
   "WARD PRECINCT": "42-18",
   "POLICE DISTRICT": 12,
   "LATITUDE": 41.887531657,
   "LONGITUDE": -87.642677932,
   "LOCATION": "{'latitude': '41.88753165653888', 'human_address': '{\"address\": \"\", \"city\": \"\", \"state\": \"\", \"zip\": \"\"}', 'longitude': '-87.64267793249394'}",
   "Community Areas": 29,
   "Zip Codes": 4452,
   "Boundaries - ZIP Codes": 45,
   "Census Tracts": 784,
   "Wards": 36
 },
 {
   "PERMIT NUMBER": 1131510,
   "ACCOUNT NUMBER": 313994,
   "SITE NUMBER": 2,
   "LEGAL NAME": "325 S FRANKLIN, LLC",
   "DOING BUSINESS AS NAME": "THE FRANKLIN TAP",
   "ISSUED DATE": "2018-05-10T00:00:00.000",
   "EXPIRATION DATE": "2018-12-01T00:00:00.000",
   "PAYMENT DATE": "2018-03-21T00:00:00.000",
   "ADDRESS": "325 S FRANKLIN ST",
   "ADDRESS NUMBER START": 325,
   "ADDRESS NUMBER": "325",
   "STREET DIRECTION": "S",
   "STREET": "FRANKLIN",
   "STREET TYPE": "ST",
   "CITY": "CHICAGO",
   "STATE": "IL",
   "ZIP CODE": 60606,
   "WARD": 42,
   "PRECINCT": 49,
   "WARD PRECINCT": "42-49",
   "POLICE DISTRICT": 1,
   "LATITUDE": 41.877489075,
   "LONGITUDE": -87.635044708,
   "LOCATION": "{'latitude': '41.87748907498243', 'human_address': '{\"address\": \"\", \"city\": \"\", \"state\": \"\", \"zip\": \"\"}', 'longitude': '-87.63504470794305'}",
   "Community Areas": 38,
   "Zip Codes": 14914,
   "Boundaries - ZIP Codes": 46,
   "Census Tracts": 92,
   "Wards": 36
 },
 {
   "PERMIT NUMBER": 1131509,
   "ACCOUNT NUMBER": 377127,
   "SITE NUMBER": 1,
   "LEGAL NAME": "CrossTown Fitness-1027 W. Madison, LLC",
   "DOING BUSINESS AS NAME": "CrossTown Fitness",
   "ISSUED DATE": "2018-03-29T00:00:00.000",
   "EXPIRATION DATE": "2018-12-01T00:00:00.000",
   "PAYMENT DATE": "2018-03-28T00:00:00.000",
   "ADDRESS": "1031 W MADISON ST",
   "ADDRESS NUMBER START": 1031,
   "ADDRESS NUMBER": "1031",
   "STREET DIRECTION": "W",
   "STREET": "MADISON",
   "STREET TYPE": "ST",
   "CITY": "CHICAGO",
   "STATE": "IL",
   "ZIP CODE": 60607,
   "WARD": 25,
   "PRECINCT": 16,
   "WARD PRECINCT": "25-16",
   "POLICE DISTRICT": 12,
   "LATITUDE": 41.881570479,
   "LONGITUDE": -87.653323212,
   "LOCATION": "{'latitude': '41.881570479100915', 'human_address': '{\"address\": \"\", \"city\": \"\", \"state\": \"\", \"zip\": \"\"}', 'longitude': '-87.65332321194828'}",
   "Community Areas": 29,
   "Zip Codes": 14917,
   "Boundaries - ZIP Codes": 44,
   "Census Tracts": 91,
   "Wards": 26
 },
 {
   "PERMIT NUMBER": 1131508,
   "ACCOUNT NUMBER": 86063,
   "SITE NUMBER": 1,
   "LEGAL NAME": "LOU MITCHELL'S INC",
   "DOING BUSINESS AS NAME": "LOU MITCHELL'S",
   "ISSUED DATE": "2018-04-23T00:00:00.000",
   "EXPIRATION DATE": "2019-02-28T00:00:00.000",
   "PAYMENT DATE": "2018-03-22T00:00:00.000",
   "ADDRESS": "565 W JACKSON BLVD",
   "ADDRESS NUMBER START": 565,
   "ADDRESS NUMBER": "565",
   "STREET DIRECTION": "W",
   "STREET": "JACKSON",
   "STREET TYPE": "BLVD",
   "CITY": "CHICAGO",
   "STATE": "IL",
   "ZIP CODE": 60661,
   "WARD": 42,
   "PRECINCT": 12,
   "WARD PRECINCT": "42-12",
   "POLICE DISTRICT": 1,
   "LATITUDE": 41.877904219,
   "LONGITUDE": -87.642194824,
   "LOCATION": "{'latitude': '41.8779042186468', 'human_address': '{\"address\": \"\", \"city\": \"\", \"state\": \"\", \"zip\": \"\"}', 'longitude': '-87.64219482401225'}",
   "Community Areas": 29,
   "Zip Codes": 4452,
   "Boundaries - ZIP Codes": 45,
   "Census Tracts": 786,
   "Wards": 36
 },
 {
   "PERMIT NUMBER": 1131507,
   "ACCOUNT NUMBER": 17165,
   "SITE NUMBER": 2,
   "LEGAL NAME": "CHICAGO'S BEST, INC.",
   "DOING BUSINESS AS NAME": "CHICAGO'S PIZZA",
   "ISSUED DATE": "2018-06-06T00:00:00.000",
   "EXPIRATION DATE": "2018-12-01T00:00:00.000",
   "PAYMENT DATE": "2018-03-19T00:00:00.000",
   "ADDRESS": "1919-21 W MONTROSE AVE",
   "ADDRESS NUMBER START": 1919,
   "ADDRESS NUMBER": "1919-21",
   "STREET DIRECTION": "W",
   "STREET": "MONTROSE",
   "STREET TYPE": "AVE",
   "CITY": "CHICAGO",
   "STATE": "IL",
   "ZIP CODE": 60613,
   "WARD": 47,
   "PRECINCT": 37,
   "WARD PRECINCT": "47-37",
   "POLICE DISTRICT": 19,
   "LATITUDE": 41.961372933,
   "LONGITUDE": -87.676825233,
   "LOCATION": "{'latitude': '41.961372932887095', 'human_address': '{\"address\": \"\", \"city\": \"\", \"state\": \"\", \"zip\": \"\"}', 'longitude': '-87.6768252331503'}",
   "Community Areas": 46,
   "Zip Codes": 21186,
   "Boundaries - ZIP Codes": 53,
   "Census Tracts": 622,
   "Wards": 18
 },
 {
   "PERMIT NUMBER": 1131506,
   "ACCOUNT NUMBER": 395512,
   "SITE NUMBER": 1,
   "LEGAL NAME": "Mama Luna on Addison LLC",
   "DOING BUSINESS AS NAME": "Mama Luna on Addison LLC",
   "ISSUED DATE": "2018-06-29T00:00:00.000",
   "EXPIRATION DATE": "2018-12-01T00:00:00.000",
   "PAYMENT DATE": "2018-03-23T00:00:00.000",
   "ADDRESS": "7601 W ADDISON ST",
   "ADDRESS NUMBER START": 7601,
   "ADDRESS NUMBER": "7601",
   "STREET DIRECTION": "W",
   "STREET": "ADDISON",
   "STREET TYPE": "ST",
   "CITY": "CHICAGO",
   "STATE": "IL",
   "ZIP CODE": 60634,
   "WARD": 38,
   "PRECINCT": 9,
   "WARD PRECINCT": "38-9",
   "POLICE DISTRICT": 16,
   "LATITUDE": 41.945076697,
   "LONGITUDE": -87.816856291,
   "LOCATION": "{'latitude': '41.945076696578795', 'human_address': '{\"address\": \"\", \"city\": \"\", \"state\": \"\", \"zip\": \"\"}', 'longitude': '-87.81685629073219'}",
   "Community Areas": 17,
   "Zip Codes": 22254,
   "Boundaries - ZIP Codes": 52,
   "Census Tracts": 458,
   "Wards": 19
 },
 {
   "PERMIT NUMBER": 1131505,
   "ACCOUNT NUMBER": 206313,
   "SITE NUMBER": 1,
   "LEGAL NAME": "PENINSULA CHICAGO LLC",
   "DOING BUSINESS AS NAME": "PENINSULA CHICAGO, LLC",
   "ISSUED DATE": "2018-05-24T00:00:00.000",
   "EXPIRATION DATE": "2018-12-01T00:00:00.000",
   "PAYMENT DATE": "2018-04-04T00:00:00.000",
   "ADDRESS": "108 E SUPERIOR ST",
   "ADDRESS NUMBER START": 108,
   "ADDRESS NUMBER": "108",
   "STREET DIRECTION": "E",
   "STREET": "SUPERIOR",
   "STREET TYPE": "ST",
   "CITY": "CHICAGO",
   "STATE": "IL",
   "ZIP CODE": 60611,
   "WARD": 42,
   "PRECINCT": 48,
   "WARD PRECINCT": "42-48",
   "POLICE DISTRICT": 18,
   "LATITUDE": 41.895839638,
   "LONGITUDE": -87.624988141,
   "LOCATION": "{'latitude': '41.89583963820686', 'human_address': '{\"address\": \"\", \"city\": \"\", \"state\": \"\", \"zip\": \"\"}', 'longitude': '-87.62498814131581'}",
   "Community Areas": 37,
   "Zip Codes": 21182,
   "Boundaries - ZIP Codes": 6,
   "Census Tracts": 626,
   "Wards": 36
 },
 {
   "PERMIT NUMBER": 1131504,
   "ACCOUNT NUMBER": 9454,
   "SITE NUMBER": 35,
   "LEGAL NAME": "FIREPLACE INNS, INC.",
   "DOING BUSINESS AS NAME": "THE FIRE PLACE INN",
   "ISSUED DATE": "2018-03-14T00:00:00.000",
   "EXPIRATION DATE": "2018-12-01T00:00:00.000",
   "PAYMENT DATE": "2018-03-14T00:00:00.000",
   "ADDRESS": "1448-1450 N WELLS ST",
   "ADDRESS NUMBER START": 1448,
   "ADDRESS NUMBER": "1448-1450",
   "STREET DIRECTION": "N",
   "STREET": "WELLS",
   "STREET TYPE": "ST",
   "CITY": "CHICAGO",
   "STATE": "IL",
   "ZIP CODE": 60610,
   "WARD": 27,
   "PRECINCT": 42,
   "WARD PRECINCT": "27-42",
   "POLICE DISTRICT": 18,
   "LATITUDE": 41.908977678,
   "LONGITUDE": -87.634789122,
   "LOCATION": "{'latitude': '41.908977678376715', 'human_address': '{\"address\": \"\", \"city\": \"\", \"state\": \"\", \"zip\": \"\"}', 'longitude': '-87.63478912164865'}",
   "Community Areas": 37,
   "Zip Codes": 14926,
   "Boundaries - ZIP Codes": 54,
   "Census Tracts": 290,
   "Wards": 46
 },
 {
   "PERMIT NUMBER": 1131503,
   "ACCOUNT NUMBER": 9763,
   "SITE NUMBER": 1,
   "LEGAL NAME": "157 OHIO GRILL INC.",
   "DOING BUSINESS AS NAME": "Sayat Nova",
   "ISSUED DATE": "2018-04-09T00:00:00.000",
   "EXPIRATION DATE": "2018-12-01T00:00:00.000",
   "PAYMENT DATE": "2018-04-05T00:00:00.000",
   "ADDRESS": "157 E OHIO ST",
   "ADDRESS NUMBER START": 157,
   "ADDRESS NUMBER": "157",
   "STREET DIRECTION": "E",
   "STREET": "OHIO",
   "STREET TYPE": "ST",
   "CITY": "CHICAGO",
   "STATE": "IL",
   "ZIP CODE": 60611,
   "WARD": 42,
   "PRECINCT": 53,
   "WARD PRECINCT": "42-53",
   "POLICE DISTRICT": 18,
   "LATITUDE": 41.892442023,
   "LONGITUDE": -87.623147475,
   "LOCATION": "{'latitude': '41.89244202292865', 'human_address': '{\"address\": \"\", \"city\": \"\", \"state\": \"\", \"zip\": \"\"}', 'longitude': '-87.62314747525059'}",
   "Community Areas": 37,
   "Zip Codes": 21182,
   "Boundaries - ZIP Codes": 6,
   "Census Tracts": 159,
   "Wards": 36
 },
 {
   "PERMIT NUMBER": 1131502,
   "ACCOUNT NUMBER": 393943,
   "SITE NUMBER": 1,
   "LEGAL NAME": "B RESTAURANT LLC",
   "DOING BUSINESS AS NAME": "FORMENTO'S NONNA'S",
   "ISSUED DATE": "2018-03-19T00:00:00.000",
   "EXPIRATION DATE": "2018-12-01T00:00:00.000",
   "PAYMENT DATE": "2018-03-19T00:00:00.000",
   "ADDRESS": "917-923 W RANDOLPH ST",
   "ADDRESS NUMBER START": 917,
   "ADDRESS NUMBER": "917-923",
   "STREET DIRECTION": "W",
   "STREET": "RANDOLPH",
   "STREET TYPE": "ST",
   "CITY": "CHICAGO",
   "STATE": "IL",
   "ZIP CODE": 60607,
   "WARD": 27,
   "PRECINCT": 1,
   "WARD PRECINCT": "27-1",
   "POLICE DISTRICT": 12,
   "LATITUDE": 41.884244445,
   "LONGITUDE": -87.650527117,
   "LOCATION": "{'latitude': '41.88424444452276', 'human_address': '{\"address\": \"\", \"city\": \"\", \"state\": \"\", \"zip\": \"\"}', 'longitude': '-87.65052711700389'}",
   "Community Areas": 29,
   "Zip Codes": 14917,
   "Boundaries - ZIP Codes": 44,
   "Census Tracts": 63,
   "Wards": 46
 },
 {
   "PERMIT NUMBER": 1131501,
   "ACCOUNT NUMBER": 17500,
   "SITE NUMBER": 1,
   "LEGAL NAME": "ENTROPY, INC.",
   "DOING BUSINESS AS NAME": "FOUR MOON TAVERN",
   "ISSUED DATE": "2018-04-06T00:00:00.000",
   "EXPIRATION DATE": "2019-02-28T00:00:00.000",
   "PAYMENT DATE": "2018-04-06T00:00:00.000",
   "ADDRESS": "1847 W ROSCOE ST",
   "ADDRESS NUMBER START": 1847,
   "ADDRESS NUMBER": "1847",
   "STREET DIRECTION": "W",
   "STREET": "ROSCOE",
   "STREET TYPE": "ST",
   "CITY": "CHICAGO",
   "STATE": "IL",
   "ZIP CODE": 60657,
   "WARD": 47,
   "PRECINCT": 9,
   "WARD PRECINCT": "47-9",
   "POLICE DISTRICT": 19,
   "LATITUDE": 41.943140963,
   "LONGITUDE": -87.675707395,
   "LOCATION": "{'latitude': '41.94314096316059', 'human_address': '{\"address\": \"\", \"city\": \"\", \"state\": \"\", \"zip\": \"\"}', 'longitude': '-87.67570739466916'}",
   "Community Areas": 46,
   "Zip Codes": 4449,
   "Boundaries - ZIP Codes": 22,
   "Census Tracts": 648,
   "Wards": 18
 },
 {
   "PERMIT NUMBER": 1131497,
   "ACCOUNT NUMBER": 349143,
   "SITE NUMBER": 1,
   "LEGAL NAME": "FRENCH MARKET OF CHICAGO, LLC",
   "DOING BUSINESS AS NAME": "CHICAGO FRENCH MARKET",
   "ISSUED DATE": "2018-03-29T00:00:00.000",
   "EXPIRATION DATE": "2018-12-01T00:00:00.000",
   "PAYMENT DATE": "2018-03-15T00:00:00.000",
   "ADDRESS": "131 N CLINTON ST",
   "ADDRESS NUMBER START": 131,
   "ADDRESS NUMBER": "131",
   "STREET DIRECTION": "N",
   "STREET": "CLINTON",
   "STREET TYPE": "ST",
   "CITY": "CHICAGO",
   "STATE": "IL",
   "ZIP CODE": null,
   "WARD": 42,
   "PRECINCT": 21,
   "WARD PRECINCT": "42-21",
   "POLICE DISTRICT": 1,
   "LATITUDE": 41.884187507,
   "LONGITUDE": -87.641119667,
   "LOCATION": "{'latitude': '41.884187507127805', 'human_address': '{\"address\": \"\", \"city\": \"\", \"state\": \"\", \"zip\": \"\"}', 'longitude': '-87.64111966683218'}",
   "Community Areas": 29,
   "Zip Codes": 4452,
   "Boundaries - ZIP Codes": 45,
   "Census Tracts": 784,
   "Wards": 36
 },
 {
   "PERMIT NUMBER": 1131496,
   "ACCOUNT NUMBER": 17900,
   "SITE NUMBER": 1,
   "LEGAL NAME": "FADO CHICAGO, L.L.C.",
   "DOING BUSINESS AS NAME": "FADO IRISH PUB",
   "ISSUED DATE": "2018-04-06T00:00:00.000",
   "EXPIRATION DATE": "2019-02-28T00:00:00.000",
   "PAYMENT DATE": "2018-03-22T00:00:00.000",
   "ADDRESS": "100 W GRAND AVE",
   "ADDRESS NUMBER START": 100,
   "ADDRESS NUMBER": "100",
   "STREET DIRECTION": "W",
   "STREET": "GRAND",
   "STREET TYPE": "AVE",
   "CITY": "CHICAGO",
   "STATE": "IL",
   "ZIP CODE": 60654,
   "WARD": 42,
   "PRECINCT": 46,
   "WARD PRECINCT": "42-46",
   "POLICE DISTRICT": 18,
   "LATITUDE": 41.89173502,
   "LONGITUDE": -87.631201689,
   "LOCATION": "{'latitude': '41.891735020379166', 'human_address': '{\"address\": \"\", \"city\": \"\", \"state\": \"\", \"zip\": \"\"}', 'longitude': '-87.63120168879202'}",
   "Community Areas": 37,
   "Zip Codes": 4446,
   "Boundaries - ZIP Codes": 55,
   "Census Tracts": 670,
   "Wards": 36
 },
 {
   "PERMIT NUMBER": 1131494,
   "ACCOUNT NUMBER": 18156,
   "SITE NUMBER": 1,
   "LEGAL NAME": "2053 W. DIVISION INC.",
   "DOING BUSINESS AS NAME": "Silli Kori",
   "ISSUED DATE": "2018-03-14T00:00:00.000",
   "EXPIRATION DATE": "2018-12-01T00:00:00.000",
   "PAYMENT DATE": "2018-03-14T00:00:00.000",
   "ADDRESS": "2053 W DIVISION ST",
   "ADDRESS NUMBER START": 2053,
   "ADDRESS NUMBER": "2053",
   "STREET DIRECTION": "W",
   "STREET": "DIVISION",
   "STREET TYPE": "ST",
   "CITY": "CHICAGO",
   "STATE": "IL",
   "ZIP CODE": 60622,
   "WARD": 1,
   "PRECINCT": 3,
   "WARD PRECINCT": "1-3",
   "POLICE DISTRICT": 12,
   "LATITUDE": 41.903042737,
   "LONGITUDE": -87.679346686,
   "LOCATION": "{'latitude': '41.90304273718245', 'human_address': '{\"address\": \"\", \"city\": \"\", \"state\": \"\", \"zip\": \"\"}', 'longitude': '-87.67934668623805'}",
   "Community Areas": 25,
   "Zip Codes": 21560,
   "Boundaries - ZIP Codes": 4,
   "Census Tracts": 476,
   "Wards": 41
 },
 {
   "PERMIT NUMBER": 1131493,
   "ACCOUNT NUMBER": 370544,
   "SITE NUMBER": 2,
   "LEGAL NAME": "LA FOURNETTE, LLC",
   "DOING BUSINESS AS NAME": "La Fournette LLC",
   "ISSUED DATE": "2018-03-23T00:00:00.000",
   "EXPIRATION DATE": "2018-12-01T00:00:00.000",
   "PAYMENT DATE": "2018-03-22T00:00:00.000",
   "ADDRESS": "1547 N WELLS ST",
   "ADDRESS NUMBER START": 1547,
   "ADDRESS NUMBER": "1547",
   "STREET DIRECTION": "N",
   "STREET": "WELLS",
   "STREET TYPE": "ST",
   "CITY": "CHICAGO",
   "STATE": "IL",
   "ZIP CODE": null,
   "WARD": 27,
   "PRECINCT": 54,
   "WARD PRECINCT": "27-54",
   "POLICE DISTRICT": 18,
   "LATITUDE": 41.910517471,
   "LONGITUDE": -87.634543625,
   "LOCATION": "{'latitude': '41.91051747094252', 'human_address': '{\"address\": \"\", \"city\": \"\", \"state\": \"\", \"zip\": \"\"}', 'longitude': '-87.63454362494758'}",
   "Community Areas": 37,
   "Zip Codes": 14926,
   "Boundaries - ZIP Codes": 54,
   "Census Tracts": 290,
   "Wards": 46
 },
 {
   "PERMIT NUMBER": 1131477,
   "ACCOUNT NUMBER": 399924,
   "SITE NUMBER": 2,
   "LEGAL NAME": "VPC RUSH STREET PIZZA, LLC",
   "DOING BUSINESS AS NAME": "GIORDANO'S ON RUSH",
   "ISSUED DATE": "2018-03-15T00:00:00.000",
   "EXPIRATION DATE": "2018-12-01T00:00:00.000",
   "PAYMENT DATE": "2018-03-15T00:00:00.000",
   "ADDRESS": "730-740 N RUSH ST",
   "ADDRESS NUMBER START": 730,
   "ADDRESS NUMBER": "730-740",
   "STREET DIRECTION": "N",
   "STREET": "RUSH",
   "STREET TYPE": "ST",
   "CITY": "CHICAGO",
   "STATE": "IL",
   "ZIP CODE": 60611,
   "WARD": 42,
   "PRECINCT": 19,
   "WARD PRECINCT": "42-19",
   "POLICE DISTRICT": 18,
   "LATITUDE": 41.895769847,
   "LONGITUDE": -87.625628559,
   "LOCATION": "{'latitude': '41.89576984662454', 'human_address': '{\"address\": \"\", \"city\": \"\", \"state\": \"\", \"zip\": \"\"}', 'longitude': '-87.62562855938958'}",
   "Community Areas": 37,
   "Zip Codes": 21182,
   "Boundaries - ZIP Codes": 6,
   "Census Tracts": 626,
   "Wards": 36
 },
 {
   "PERMIT NUMBER": 1131476,
   "ACCOUNT NUMBER": 370196,
   "SITE NUMBER": 5,
   "LEGAL NAME": "CHICAGO LOCAL MARKETS LLC",
   "DOING BUSINESS AS NAME": "The Roost Carolina Kitchen",
   "ISSUED DATE": "2018-03-12T00:00:00.000",
   "EXPIRATION DATE": "2018-12-01T00:00:00.000",
   "PAYMENT DATE": "2018-03-12T00:00:00.000",
   "ADDRESS": "455 N MILWAUKEE AVE",
   "ADDRESS NUMBER START": 455,
   "ADDRESS NUMBER": "455",
   "STREET DIRECTION": "N",
   "STREET": "MILWAUKEE",
   "STREET TYPE": "AVE",
   "CITY": "CHICAGO",
   "STATE": "IL",
   "ZIP CODE": 60654,
   "WARD": 27,
   "PRECINCT": 11,
   "WARD PRECINCT": "27-11",
   "POLICE DISTRICT": 12,
   "LATITUDE": 41.890245552,
   "LONGITUDE": -87.645909365,
   "LOCATION": "{'latitude': '41.890245551519065', 'human_address': '{\"address\": \"\", \"city\": \"\", \"state\": \"\", \"zip\": \"\"}', 'longitude': '-87.64590936487818'}",
   "Community Areas": 25,
   "Zip Codes": 4446,
   "Boundaries - ZIP Codes": 55,
   "Census Tracts": 109,
   "Wards": 46
 },
 {
   "PERMIT NUMBER": 1131474,
   "ACCOUNT NUMBER": 48147,
   "SITE NUMBER": 4,
   "LEGAL NAME": "BALLINGARY MANAGEMENT, INC.",
   "DOING BUSINESS AS NAME": "COALFIRE PIZZA",
   "ISSUED DATE": "2018-03-15T00:00:00.000",
   "EXPIRATION DATE": "2018-12-01T00:00:00.000",
   "PAYMENT DATE": "2018-03-15T00:00:00.000",
   "ADDRESS": "3705-3707 N SOUTHPORT AVE",
   "ADDRESS NUMBER START": 3705,
   "ADDRESS NUMBER": "3705-3707",
   "STREET DIRECTION": "N",
   "STREET": "SOUTHPORT",
   "STREET TYPE": "AVE",
   "CITY": "CHICAGO",
   "STATE": "IL",
   "ZIP CODE": 60613,
   "WARD": 44,
   "PRECINCT": 25,
   "WARD PRECINCT": "44-25",
   "POLICE DISTRICT": 19,
   "LATITUDE": 41.949091556,
   "LONGITUDE": -87.663926244,
   "LOCATION": "{'latitude': '41.94909155554482', 'human_address': '{\"address\": \"\", \"city\": \"\", \"state\": \"\", \"zip\": \"\"}', 'longitude': '-87.66392624358977'}",
   "Community Areas": 57,
   "Zip Codes": 21186,
   "Boundaries - ZIP Codes": 53,
   "Census Tracts": 728,
   "Wards": 25
 },
 {
   "PERMIT NUMBER": 1131473,
   "ACCOUNT NUMBER": 292957,
   "SITE NUMBER": 2,
   "LEGAL NAME": "THE BIG FOUR, LLC",
   "DOING BUSINESS AS NAME": "HAMBURGER MARY'S CHICAGO",
   "ISSUED DATE": "2018-03-15T00:00:00.000",
   "EXPIRATION DATE": "2018-12-01T00:00:00.000",
   "PAYMENT DATE": "2018-03-15T00:00:00.000",
   "ADDRESS": "5400 N CLARK ST",
   "ADDRESS NUMBER START": 5400,
   "ADDRESS NUMBER": "5400",
   "STREET DIRECTION": "N",
   "STREET": "CLARK",
   "STREET TYPE": "ST",
   "CITY": "CHICAGO",
   "STATE": "IL",
   "ZIP CODE": 60640,
   "WARD": 40,
   "PRECINCT": 42,
   "WARD PRECINCT": "40-42",
   "POLICE DISTRICT": 20,
   "LATITUDE": 41.979884283,
   "LONGITUDE": -87.668429485,
   "LOCATION": "{'latitude': '41.97988428297559', 'human_address': '{\"address\": \"\", \"city\": \"\", \"state\": \"\", \"zip\": \"\"}', 'longitude': '-87.66842948468236'}",
   "Community Areas": 76,
   "Zip Codes": 22616,
   "Boundaries - ZIP Codes": 15,
   "Census Tracts": 564,
   "Wards": 24
 },
 {
   "PERMIT NUMBER": 1131472,
   "ACCOUNT NUMBER": 86114,
   "SITE NUMBER": 3,
   "LEGAL NAME": "CHEF LUCIANO",
   "DOING BUSINESS AS NAME": "CHEF LUCIANO",
   "ISSUED DATE": "2018-04-06T00:00:00.000",
   "EXPIRATION DATE": "2018-12-01T00:00:00.000",
   "PAYMENT DATE": "2018-04-05T00:00:00.000",
   "ADDRESS": "43-51 E CERMAK RD",
   "ADDRESS NUMBER START": 43,
   "ADDRESS NUMBER": "43-51",
   "STREET DIRECTION": "E",
   "STREET": "CERMAK",
   "STREET TYPE": "RD",
   "CITY": "CHICAGO",
   "STATE": "IL",
   "ZIP CODE": 60616,
   "WARD": 3,
   "PRECINCT": 3,
   "WARD PRECINCT": "3-3",
   "POLICE DISTRICT": 1,
   "LATITUDE": 41.852742931,
   "LONGITUDE": -87.62533627,
   "LOCATION": "{'latitude': '41.852742931402474', 'human_address': '{\"address\": \"\", \"city\": \"\", \"state\": \"\", \"zip\": \"\"}', 'longitude': '-87.62533627001545'}",
   "Community Areas": 34,
   "Zip Codes": 21194,
   "Boundaries - ZIP Codes": 40,
   "Census Tracts": 193,
   "Wards": 9
 },
 {
   "PERMIT NUMBER": 1131471,
   "ACCOUNT NUMBER": 370446,
   "SITE NUMBER": 1,
   "LEGAL NAME": "EC RESTAURANTS (CHICAGO - ADAMS) CORP.",
   "DOING BUSINESS AS NAME": "ELEPHANT & CASTLE PUB & RESTAURANT",
   "ISSUED DATE": "2018-03-26T00:00:00.000",
   "EXPIRATION DATE": "2018-12-01T00:00:00.000",
   "PAYMENT DATE": "2018-03-26T00:00:00.000",
   "ADDRESS": "111 W ADAMS ST",
   "ADDRESS NUMBER START": 111,
   "ADDRESS NUMBER": "111",
   "STREET DIRECTION": "W",
   "STREET": "ADAMS",
   "STREET TYPE": "ST",
   "CITY": "CHICAGO",
   "STATE": "IL",
   "ZIP CODE": 60603,
   "WARD": 42,
   "PRECINCT": 9,
   "WARD PRECINCT": "42-9",
   "POLICE DISTRICT": 1,
   "LATITUDE": 41.879301285,
   "LONGITUDE": -87.631167793,
   "LOCATION": "{'latitude': '41.87930128470342', 'human_address': '{\"address\": \"\", \"city\": \"\", \"state\": \"\", \"zip\": \"\"}', 'longitude': '-87.63116779278104'}",
   "Community Areas": 38,
   "Zip Codes": 14912,
   "Boundaries - ZIP Codes": 29,
   "Census Tracts": 92,
   "Wards": 36
 },
 {
   "PERMIT NUMBER": 1131470,
   "ACCOUNT NUMBER": 222670,
   "SITE NUMBER": 1,
   "LEGAL NAME": "AMANDA ENTERPRISE, INC.",
   "DOING BUSINESS AS NAME": "ANGELO'S PIZZA",
   "ISSUED DATE": "2018-03-23T00:00:00.000",
   "EXPIRATION DATE": "2018-12-01T00:00:00.000",
   "PAYMENT DATE": "2018-03-22T00:00:00.000",
   "ADDRESS": "3024-3026 W MONTROSE AVE",
   "ADDRESS NUMBER START": 3024,
   "ADDRESS NUMBER": "3024-3026",
   "STREET DIRECTION": "W",
   "STREET": "MONTROSE",
   "STREET TYPE": "AVE",
   "CITY": "CHICAGO",
   "STATE": "IL",
   "ZIP CODE": 60618,
   "WARD": 33,
   "PRECINCT": 8,
   "WARD PRECINCT": "33-8",
   "POLICE DISTRICT": 17,
   "LATITUDE": 41.961323045,
   "LONGITUDE": -87.704439891,
   "LOCATION": "{'latitude': '41.96132304533024', 'human_address': '{\"address\": \"\", \"city\": \"\", \"state\": \"\", \"zip\": \"\"}', 'longitude': '-87.70443989122323'}",
   "Community Areas": 14,
   "Zip Codes": 21538,
   "Boundaries - ZIP Codes": 20,
   "Census Tracts": 258,
   "Wards": 20
 },
 {
   "PERMIT NUMBER": 1131469,
   "ACCOUNT NUMBER": 64261,
   "SITE NUMBER": 1,
   "LEGAL NAME": "KMFA, LTD.",
   "DOING BUSINESS AS NAME": "SANTORINI",
   "ISSUED DATE": "2018-04-18T00:00:00.000",
   "EXPIRATION DATE": "2018-12-01T00:00:00.000",
   "PAYMENT DATE": "2018-04-04T00:00:00.000",
   "ADDRESS": "138 S HALSTED ST",
   "ADDRESS NUMBER START": 138,
   "ADDRESS NUMBER": "138",
   "STREET DIRECTION": "S",
   "STREET": "HALSTED",
   "STREET TYPE": "ST",
   "CITY": "CHICAGO",
   "STATE": "IL",
   "ZIP CODE": 60661,
   "WARD": 27,
   "PRECINCT": 58,
   "WARD PRECINCT": "27-58",
   "POLICE DISTRICT": 12,
   "LATITUDE": 41.879277914,
   "LONGITUDE": -87.647429296,
   "LOCATION": "{'latitude': '41.87927791388022', 'human_address': '{\"address\": \"\", \"city\": \"\", \"state\": \"\", \"zip\": \"\"}', 'longitude': '-87.64742929608974'}",
   "Community Areas": 29,
   "Zip Codes": 14917,
   "Boundaries - ZIP Codes": 44,
   "Census Tracts": 91,
   "Wards": 46
 },
 {
   "PERMIT NUMBER": 1131468,
   "ACCOUNT NUMBER": 23957,
   "SITE NUMBER": 1,
   "LEGAL NAME": "TEMPO CAFE LIMITED",
   "DOING BUSINESS AS NAME": "TEMPO CAFE",
   "ISSUED DATE": "2018-03-22T00:00:00.000",
   "EXPIRATION DATE": "2018-12-01T00:00:00.000",
   "PAYMENT DATE": "2018-03-19T00:00:00.000",
   "ADDRESS": "6 E CHESTNUT ST",
   "ADDRESS NUMBER START": 6,
   "ADDRESS NUMBER": "6",
   "STREET DIRECTION": "E",
   "STREET": "CHESTNUT",
   "STREET TYPE": "ST",
   "CITY": "CHICAGO",
   "STATE": "IL",
   "ZIP CODE": 60611,
   "WARD": 2,
   "PRECINCT": 32,
   "WARD PRECINCT": "2-32",
   "POLICE DISTRICT": 18,
   "LATITUDE": 41.898431372,
   "LONGITUDE": -87.628009163,
   "LOCATION": "{'latitude': '41.89843137207629', 'human_address': '{\"address\": \"\", \"city\": \"\", \"state\": \"\", \"zip\": \"\"}', 'longitude': '-87.6280091630558'}",
   "Community Areas": 37,
   "Zip Codes": 21182,
   "Boundaries - ZIP Codes": 6,
   "Census Tracts": 104,
   "Wards": 11
 },
 {
   "PERMIT NUMBER": 1131467,
   "ACCOUNT NUMBER": 409810,
   "SITE NUMBER": 1,
   "LEGAL NAME": "GKCW LLC",
   "DOING BUSINESS AS NAME": "WAFFLES CHICAGO",
   "ISSUED DATE": "2018-03-23T00:00:00.000",
   "EXPIRATION DATE": "2018-12-01T00:00:00.000",
   "PAYMENT DATE": "2018-03-22T00:00:00.000",
   "ADDRESS": "1400 S MICHIGAN AVE",
   "ADDRESS NUMBER START": 1400,
   "ADDRESS NUMBER": "1400",
   "STREET DIRECTION": "S",
   "STREET": "MICHIGAN",
   "STREET TYPE": "AVE",
   "CITY": "CHICAGO",
   "STATE": "IL",
   "ZIP CODE": 60605,
   "WARD": 3,
   "PRECINCT": 40,
   "WARD PRECINCT": "3-40",
   "POLICE DISTRICT": 1,
   "LATITUDE": 41.864001544,
   "LONGITUDE": -87.624225729,
   "LOCATION": "{'latitude': '41.864001543549804', 'human_address': '{\"address\": \"\", \"city\": \"\", \"state\": \"\", \"zip\": \"\"}', 'longitude': '-87.62422572913968'}",
   "Community Areas": 34,
   "Zip Codes": 14913,
   "Boundaries - ZIP Codes": 35,
   "Census Tracts": 374,
   "Wards": 9
 },
 {
   "PERMIT NUMBER": 1131466,
   "ACCOUNT NUMBER": 365590,
   "SITE NUMBER": 1,
   "LEGAL NAME": "JOE'S WINE CELLAR INC.",
   "DOING BUSINESS AS NAME": "JOE'S WINE CELLAR",
   "ISSUED DATE": "2018-03-16T00:00:00.000",
   "EXPIRATION DATE": "2018-12-01T00:00:00.000",
   "PAYMENT DATE": "2018-03-16T00:00:00.000",
   "ADDRESS": "2108 W DIVISION ST",
   "ADDRESS NUMBER START": 2108,
   "ADDRESS NUMBER": "2108",
   "STREET DIRECTION": "W",
   "STREET": "DIVISION",
   "STREET TYPE": "ST",
   "CITY": "CHICAGO",
   "STATE": "IL",
   "ZIP CODE": 60622,
   "WARD": 2,
   "PRECINCT": 3,
   "WARD PRECINCT": "2-3",
   "POLICE DISTRICT": 14,
   "LATITUDE": 41.903249554,
   "LONGITUDE": -87.680128075,
   "LOCATION": "{'latitude': '41.903249553580345', 'human_address': '{\"address\": \"\", \"city\": \"\", \"state\": \"\", \"zip\": \"\"}', 'longitude': '-87.68012807462533'}",
   "Community Areas": 25,
   "Zip Codes": 21560,
   "Boundaries - ZIP Codes": 4,
   "Census Tracts": 517,
   "Wards": 11
 },
 {
   "PERMIT NUMBER": 1131465,
   "ACCOUNT NUMBER": 268763,
   "SITE NUMBER": 1,
   "LEGAL NAME": "ITALO-JUDAIC DINING COMPANY",
   "DOING BUSINESS AS NAME": "WELLS ON WELLS",
   "ISSUED DATE": "2018-04-18T00:00:00.000",
   "EXPIRATION DATE": "2018-12-01T00:00:00.000",
   "PAYMENT DATE": "2018-04-18T00:00:00.000",
   "ADDRESS": "1617 N WELLS ST",
   "ADDRESS NUMBER START": 1617,
   "ADDRESS NUMBER": "1617",
   "STREET DIRECTION": "N",
   "STREET": "WELLS",
   "STREET TYPE": "ST",
   "CITY": "CHICAGO",
   "STATE": "IL",
   "ZIP CODE": 60614,
   "WARD": 2,
   "PRECINCT": 4,
   "WARD PRECINCT": "2-4",
   "POLICE DISTRICT": 18,
   "LATITUDE": 41.911678788,
   "LONGITUDE": -87.634579799,
   "LOCATION": "{'latitude': '41.91167878815612', 'human_address': '{\"address\": \"\", \"city\": \"\", \"state\": \"\", \"zip\": \"\"}', 'longitude': '-87.63457979852183'}",
   "Community Areas": 68,
   "Zip Codes": 21190,
   "Boundaries - ZIP Codes": 16,
   "Census Tracts": 271,
   "Wards": 11
 },
 {
   "PERMIT NUMBER": 1131464,
   "ACCOUNT NUMBER": 86100,
   "SITE NUMBER": 14,
   "LEGAL NAME": "KONISAN, INC.",
   "DOING BUSINESS AS NAME": "Broken English Taco Pub Old Town",
   "ISSUED DATE": "2018-04-18T00:00:00.000",
   "EXPIRATION DATE": "2018-12-01T00:00:00.000",
   "PAYMENT DATE": "2018-04-13T00:00:00.000",
   "ADDRESS": "1400 N WELLS ST",
   "ADDRESS NUMBER START": 1400,
   "ADDRESS NUMBER": "1400",
   "STREET DIRECTION": "N",
   "STREET": "WELLS",
   "STREET TYPE": "ST",
   "CITY": "CHICAGO",
   "STATE": "IL",
   "ZIP CODE": 60610,
   "WARD": 27,
   "PRECINCT": 42,
   "WARD PRECINCT": "27-42",
   "POLICE DISTRICT": 18,
   "LATITUDE": 41.907738477,
   "LONGITUDE": -87.634754618,
   "LOCATION": "{'latitude': '41.90773847735842', 'human_address': '{\"address\": \"\", \"city\": \"\", \"state\": \"\", \"zip\": \"\"}', 'longitude': '-87.63475461836646'}",
   "Community Areas": 37,
   "Zip Codes": 14926,
   "Boundaries - ZIP Codes": 54,
   "Census Tracts": 290,
   "Wards": 46
 },
 {
   "PERMIT NUMBER": 1131455,
   "ACCOUNT NUMBER": 420492,
   "SITE NUMBER": 1,
   "LEGAL NAME": "MAI TAI INC",
   "DOING BUSINESS AS NAME": "MAI TAI",
   "ISSUED DATE": "2018-03-09T00:00:00.000",
   "EXPIRATION DATE": "2018-12-01T00:00:00.000",
   "PAYMENT DATE": "2018-03-09T00:00:00.000",
   "ADDRESS": "614 S WABASH AVE",
   "ADDRESS NUMBER START": 614,
   "ADDRESS NUMBER": "614",
   "STREET DIRECTION": "S",
   "STREET": "WABASH",
   "STREET TYPE": "AVE",
   "CITY": "CHICAGO",
   "STATE": "",
   "ZIP CODE": 60605,
   "WARD": 4,
   "PRECINCT": 21,
   "WARD PRECINCT": "4-21",
   "POLICE DISTRICT": 1,
   "LATITUDE": 41.87406368,
   "LONGITUDE": -87.626135312,
   "LOCATION": "{'latitude': '41.87406368049494', 'human_address': '{\"address\": \"\", \"city\": \"\", \"state\": \"\", \"zip\": \"\"}', 'longitude': '-87.62613531222232'}",
   "Community Areas": 38,
   "Zip Codes": 14913,
   "Boundaries - ZIP Codes": 35,
   "Census Tracts": 368,
   "Wards": 10
 },
 {
   "PERMIT NUMBER": 1131452,
   "ACCOUNT NUMBER": 414518,
   "SITE NUMBER": 1,
   "LEGAL NAME": "NP&P LINCOLN SQUARE LLC",
   "DOING BUSINESS AS NAME": "NICK'S PIZZA & PUB",
   "ISSUED DATE": "2018-03-26T00:00:00.000",
   "EXPIRATION DATE": "2018-12-01T00:00:00.000",
   "PAYMENT DATE": "2018-03-26T00:00:00.000",
   "ADDRESS": "2434-2436 W MONTROSE AVE",
   "ADDRESS NUMBER START": 2434,
   "ADDRESS NUMBER": "2434-2436",
   "STREET DIRECTION": "W",
   "STREET": "MONTROSE",
   "STREET TYPE": "AVE",
   "CITY": "CHICAGO",
   "STATE": "",
   "ZIP CODE": 60618,
   "WARD": 47,
   "PRECINCT": 21,
   "WARD PRECINCT": "47-21",
   "POLICE DISTRICT": 19,
   "LATITUDE": 41.961412697,
   "LONGITUDE": -87.69010741,
   "LOCATION": "{'latitude': '41.96141269716416', 'human_address': '{\"address\": \"\", \"city\": \"\", \"state\": \"\", \"zip\": \"\"}', 'longitude': '-87.69010740967978'}",
   "Community Areas": 6,
   "Zip Codes": 21849,
   "Boundaries - ZIP Codes": 20,
   "Census Tracts": 621,
   "Wards": 18
 },
 {
   "PERMIT NUMBER": 1131451,
   "ACCOUNT NUMBER": 423847,
   "SITE NUMBER": 1,
   "LEGAL NAME": "FRC BALANCE, LLC",
   "DOING BUSINESS AS NAME": "TRUE FOOD KITCHEN",
   "ISSUED DATE": "2018-03-15T00:00:00.000",
   "EXPIRATION DATE": "2019-02-28T00:00:00.000",
   "PAYMENT DATE": "2018-03-15T00:00:00.000",
   "ADDRESS": "1 W ERIE ST",
   "ADDRESS NUMBER START": 1,
   "ADDRESS NUMBER": "1",
   "STREET DIRECTION": "W",
   "STREET": "ERIE",
   "STREET TYPE": "ST",
   "CITY": "CHICAGO",
   "STATE": "IL",
   "ZIP CODE": 60654,
   "WARD": 42,
   "PRECINCT": 22,
   "WARD PRECINCT": "42-22",
   "POLICE DISTRICT": 18,
   "LATITUDE": 41.89396102,
   "LONGITUDE": -87.628209415,
   "LOCATION": "{'latitude': '41.893961019783646', 'human_address': '{\"address\": \"\", \"city\": \"\", \"state\": \"\", \"zip\": \"\"}', 'longitude': '-87.62820941510093'}",
   "Community Areas": 37,
   "Zip Codes": 4446,
   "Boundaries - ZIP Codes": 55,
   "Census Tracts": 669,
   "Wards": 36
 },
 {
   "PERMIT NUMBER": 1131449,
   "ACCOUNT NUMBER": 258836,
   "SITE NUMBER": 1,
   "LEGAL NAME": "WHITE LODGING SERVICES CORPORATION",
   "DOING BUSINESS AS NAME": "COURTYARD BY MARRIOTT",
   "ISSUED DATE": "2018-04-17T00:00:00.000",
   "EXPIRATION DATE": "2018-12-01T00:00:00.000",
   "PAYMENT DATE": "2018-03-21T00:00:00.000",
   "ADDRESS": "165 E ONTARIO ST",
   "ADDRESS NUMBER START": 165,
   "ADDRESS NUMBER": "165",
   "STREET DIRECTION": "E",
   "STREET": "ONTARIO",
   "STREET TYPE": "ST",
   "CITY": "CHICAGO",
   "STATE": "IL",
   "ZIP CODE": 60611,
   "WARD": 42,
   "PRECINCT": 53,
   "WARD PRECINCT": "42-53",
   "POLICE DISTRICT": 18,
   "LATITUDE": 41.893251246,
   "LONGITUDE": -87.622791844,
   "LOCATION": "{'latitude': '41.89325124631192', 'human_address': '{\"address\": \"\", \"city\": \"\", \"state\": \"\", \"zip\": \"\"}', 'longitude': '-87.62279184406287'}",
   "Community Areas": 37,
   "Zip Codes": 21182,
   "Boundaries - ZIP Codes": 6,
   "Census Tracts": 159,
   "Wards": 36
 },